Identifiant Muséofile,Région administrative,Département,Commune,Nom officiel du musée,Adresse,Lieu,Code Postal,Téléphone,URL,Latitude,Longitude,REF_Deps
M0967,Auvergne-Rhône-Alpes,Ain,Lochieu,musée du Bugey-Valromey,3 rue Centrale,,01260,04 79 87 52 23,patrimoines.ain.fr/n/musee-du-bugey-valromey/n:970,45.930633,5.727664,0121801
M0964,Auvergne-Rhône-Alpes,Ain,Bourg-en-Bresse,musées des pays de l'Ain,"34, rue Général Delestraint",,01000,04 74 32 10 60,www.ain.fr/solutions-services-infos-pratiques/culture-patrimoine/visiter-musees/,46.196543,5.219217,0105302
M0965,Auvergne-Rhône-Alpes,Ain,Briord,musée de la société d'histoire et d'archéologie,,Au bourg,01470,04 74 36 72 06 (mairie),patrimoines.ain.fr/n/musee-d-archeologie-de-briord/n:1165,45.781653,5.458569,0106401
M0971,Auvergne-Rhône-Alpes,Ain,Pont-de-Vaux,musée Chintreuil,66 rue Maréchal de Lattre-de-Tassigny,,01190,03 85 51 45 75,www.musee-chintreuil.com/,46.430076,4.938125,0130501
M0974,Auvergne-Rhône-Alpes,Ain,Seyssel,musée du bois,place de la République,Mairie,01420,04 50 56 21 55 (mairie),,45.959038,5.831489,0140701
M0966,Auvergne-Rhône-Alpes,Ain,Izernore,musée archéologique,Place de l'Eglise,,01580,04 74 49 20 42,www.archeologie-izernore.com/pages/musee_historique.htm,46.219853,5.555588,0119201
M0968,Auvergne-Rhône-Alpes,Ain,Nantua,musée de la résistance et de la déportation de l'Ain,3 montée de l'abbaye,,01130,04 74 75 07 50,patrimoines.ain.fr/n/musee-de-la-resistance-et-de-la-deportation/n:809,46.152378,5.608744,0126901
M0970,Auvergne-Rhône-Alpes,Ain,Pérouges,musée du vieux Pérouges,place du Tilleul,,01800,04 74 61 00 88,,45.903299,5.179502,0129001
M0973,Auvergne-Rhône-Alpes,Ain,Saint-Paul-de-Varax,musée Louis Jourdan,place Louis-Jourdan,,01240,04 74 50 50 13,www.mairie-saintpauldevarax.fr/fr/information/35728/musee-louis-jourdan,46.098973,5.129264,0138301
M0975,Auvergne-Rhône-Alpes,Ain,Treffort-Cuisiat,musée du Revermont,40 rue Principale,CUISIAT,01000,04 74 51 32 42,patrimoines.ain.fr/n/musee-du-revermont/n:811,46.209952,5.243955,0113701
M1082,Auvergne-Rhône-Alpes,Ain,Villars-les-Dombes,musée de la Dombes,34 rue du Général-Delestraint,,01330,04 74 32 10 60,www.museedeladombes.fr/,46.005784,5.032151,0144301
M0963,Auvergne-Rhône-Alpes,Ain,Bourg-en-Bresse,musée de Brou,63 boulevard de Brou,Monastère royal de Brou,01000,04 74 22 83 83,www.monastere-de-brou.fr/#,46.196549,5.236521,0105301
M0969,Auvergne-Rhône-Alpes,Ain,Oyonnax,musée du peigne et de la plasturgie,Place Georges Pompidou,,10100,04 74 81 96 82,www.oyonnax.fr/mes-loisirs/culture/musee-du-peigne-et-de-la-plasturgie/,46.261019379136,5.64807554690429,0128301
M0972,Auvergne-Rhône-Alpes,Ain,Saint-Cyr-sur-Menthon,musée de la Bresse - domaine des Planons,987 chemin des Seiglières,,01380,03 85 36 31 22,patrimoines.ain.fr/n/domaine-des-saveurs-les-planons/n:810,46.282489,4.986729,0134301
M0109,Auvergne-Rhône-Alpes,Allier,Vichy,musée des arts africains et asiatiques (maison du missionnaire),"16, avenue Thermale",,03200,04 70 97 76 40,musee-aaa.com/,46.128104,3.419803,0331002
M0108,Auvergne-Rhône-Alpes,Allier,Souvigny,musée Saint-Marc,place Aristide Briand,BP 27,03210,04 70 43 99 75,www.ville-souvigny.com/Musee/index.html,46.534866,3.192356,0327501
M0101,Auvergne-Rhône-Alpes,Allier,Beaulon,musée rural de la Sologne bourbonnaise,11 route du donjon,Mairie,03470,04 70 42 22 34,association-csb.fr/musee/,46.466871,3.748142,0307401
M0103,Auvergne-Rhône-Alpes,Allier,Gannat,musée municipal,Esplanade Pierre Roch Jurien de la Gravière,Château prison de Gannat,03800,04 70 90 23 78,www.ville-gannat.fr/-Musee-.html,46.10177623666,3.19651371357621,0311801
M0104,Auvergne-Rhône-Alpes,Allier,Montluçon,musée des musiques populaires (vieux château),3 rue Notre Dame,,03100,04 70 02 19 60,www.mupop.fr/,46.341009,2.605724,0318501
M0102,Auvergne-Rhône-Alpes,Allier,Cérilly,musée Charles-Louis Philippe,5 rue Charles-Louis-Philippe,,03350,04 70 67 52 00,musees-bourbonnais.fr/musees/maison-musee-charles-louis-philippe/,46.617913,2.823245,0304801
M0106,Auvergne-Rhône-Alpes,Allier,Moulins,musée Anne de Beaujeu,Pavillon Anne de Beaujeu. Place du Colonel Laussedat,Château des ducs de Bourbon,03000,04 70 20 48 47,musees.allier.fr/410-presentation.htm,46.56707,3.331218,0319001
M0107,Auvergne-Rhône-Alpes,Allier,Néris-les-Bains,musée gallo-romain,"4, rue Monthyon",La maison du patrimoine,03310,04 70 03 42 11,www.ot-neris-les-bains.fr/decouvrir/au-fil-du-temps/musee-gallo-romain/,46.287552,2.662598,0319501
M5083,Auvergne-Rhône-Alpes,Allier,Moulins-sur-Allier,Centre national du costume de scène et de la scénographie,Quartier Villars,Quartier Villars,03000,04 70 20 76 20,www.cncs.fr/,46.560973,3.335798,0319002
M0979,Auvergne-Rhône-Alpes,Ardèche,Serrières,musée de la batellerie du Rhône,154 rue Auguste Vincent,Ancienne église Saint-Sornin,07340,04 75 34 00 46,www.serrieres.fr/Musee-des-Mariniers-et-de-la,45.317802,4.763253,0731301
M7058,Auvergne-Rhône-Alpes,Ardèche,Privas,musée de la terre ardéchoise,2 place des Récollets,,07000,04 75 64 43 69,,44.735836,4.594922,0718601
M0978,Auvergne-Rhône-Alpes,Ardèche,Orgnac-l'Aven,Cité de préhistoire,Site de l'aven d'Orgnac,,07150,04 75 38 65 10,www.orgnac.com/,44.310413,4.425665,0716801
M0981,Auvergne-Rhône-Alpes,Ardèche,Tournon-sur-Rhône,musée du Rhône,"14, place Auguste Faure",Château,07300,04 75 08 10 30,www.chateaumusee-tournon.com/,45.067938,4.831838,0732401
M0976,Auvergne-Rhône-Alpes,Ardèche,Annonay,musée vivarois César Filhol,15 rue Jean-Baptiste Béchetoille,Ancien Bailliage Royal,07100,04 75 67 67 93,www.mairie-annonay.fr/Musee-Cesar-Filhol.html,45.240803,4.668129,0701001
M0980,Auvergne-Rhône-Alpes,Ardèche,Soyons,musée archéologique,Place de la déesse Soïo,,07130,04 75 60 88 86,www.grottes-musee-soyons.fr/,44.887803,4.850777,0731601
M0977,Auvergne-Rhône-Alpes,Ardèche,Les Vans,musée régional,,,07140,04 75 37 24 48,www.les-vans.fr/vivre-ici/structures-culturelles/musee/,44.404332,4.131418,0733401
M1174,Auvergne-Rhône-Alpes,Ardèche,Alba-la-Romaine,muséAL musée départemental archéologique,Quartier St Pierre - RD 107,,07400,04 75 52 45 15,www.museal.ardeche.fr/,44.561507,4.592008,0700501
M0114,Auvergne-Rhône-Alpes,Cantal,Saint-Flour,musée Alfred Douët,"17, place d'Armes",Maison Consulaire,15100,04 71 60 44 99,www.saint-flour.net/sortir/musee-art-et-histoire-alfred-douet/,45.034016,3.095067,1518702
M7018,Auvergne-Rhône-Alpes,Cantal,Aurillac,musée des sciences,Château Saint-Etienne,,15000,04 71 48 07 00,musees.aurillac.fr/,44.932919,2.444912,1501401
M0110,Auvergne-Rhône-Alpes,Cantal,Aurillac,musée d'art et d'archéologie,37 rue des Carmes,Centre culturel Pierre Mendès France,15000,04 71 45 46 10,musees.aurillac.fr/,44.925394,2.441947,1501402
M0112,Auvergne-Rhône-Alpes,Cantal,Ruynes-en-Margeride,écomusée de la Margeride,Bureau de tourisme,,15320,04 71 23 42 96,ecomuseedemargeride.fr/,45.000522,3.224427,1516801
M0113,Auvergne-Rhône-Alpes,Cantal,Saint-Flour,musée de la Haute Auvergne,"24 rue Sorel, apt 9",Ancien Palais Episcopal,15100,04 71 60 22 32,www.saint-flour.net/sortir/musee-de-la-haute-auvergne/,45.0343,3.092979,1518701
M0987,Auvergne-Rhône-Alpes,Drôme,Saint-Paul-Trois-Châteaux,musée archéologique,Place Castellane,,26130,04 75 04 74 19 (conservation),www.musat.fr/,44.349149,4.768163,2632401
M0983,Auvergne-Rhône-Alpes,Drôme,Grignan,musée départemental du château,Le village,,26230,04 75 91 83 50,www.chateaux-ladrome.fr/fr/,44.439013,4.873189,2614601
M0986,Auvergne-Rhône-Alpes,Drôme,Romans,musée de la chaussure,Rue Bistour,Portail Roger VIVIER,26100,04 75 05 51 81,www.museedelachaussure.fr/,45.0431,5.055376,2628101
M0982,Auvergne-Rhône-Alpes,Drôme,Die,musée d'histoire et d'archéologie,11 rue Camille Buffardel,Maison Joseph Reynaud,26150,04 75 22 40 05,www.museededie.org/,44.75504,5.369785,2611301
M0984,Auvergne-Rhône-Alpes,Drôme,Montélimar,musée du château des Adhémar,19 rue Pierre Julien,,26200,04 75 53 79 24,www.chateaux-ladrome.fr/fr/,44.556294,4.750056,2619801
M0985,Auvergne-Rhône-Alpes,Drôme,Mours-Saint-Eusèbe,musée d'art sacré,5 place Elisée Monteil,Eglise,26540,04 75 79 27 17,www.mourssainteusebe.fr/un-village-qui-bouge/le-musee-darts-sacres,45.07091,5.052549,2621801
M0988,Auvergne-Rhône-Alpes,Drôme,Valence,musée des beaux-arts,4 place des Ormeaux,Ancien palais épiscopal,26000,04 75 79 20 80,www.museedevalence.fr/,44.931125,4.889563,2636201
M0989,Auvergne-Rhône-Alpes,Drôme,Vassieux-en-Vercors,musée du site préhistorique,L'Hâle,,26420,04 75 48 27 81,www.parc-du-vercors.fr/prehistoire/home,44.865703,5.357302,2636401
M0117,Auvergne-Rhône-Alpes,Haute-Loire,Retournac,musée des manufactures de dentelles,14 Avenue de la Gare,,43130,04 71 59 41 63,www.ville-retournac.fr/musee-des-manufactures-de-dentelles-mairie-retournac-43_fr.html,45.202566,4.035268,4316201
M0118,Auvergne-Rhône-Alpes,Haute-Loire,Saint-Arcons-d'Allier,musée de la ferblanterie,,,43300,04 71 74 02 04,,45.067807,3.548896,4316701
M0116,Auvergne-Rhône-Alpes,Haute-Loire,Le Puy-en-Velay,musée Crozatier,Jardin Henri Vinay,,43000,04 71 06 62 40,www.musee.patrimoine.lepuyenvelay.fr/,45.0386673845769,3.88345607307169,4315701
M7031,Auvergne-Rhône-Alpes,Haute-Loire,Chilhac,musée de paléontologie,Place de l'Eglise,,43380,04 71 77 47 26,www.museechilhac.com,45.148133,3.402324,4307001
M0115,Auvergne-Rhône-Alpes,Haute-Loire,Lavaudieu,musée des arts et traditions populaires,Musée ATP,,43100,04 71 76 46 11,www.auvergnevacances.com/marque_blanche/brioude-activite/detail/visiter-auvergne/musee-des-arts-et-traditions-populaires-de-la-haute-loire-lavaudieu/,45.275033,3.434883,4311701
M1053,Auvergne-Rhône-Alpes,Haute-Savoie,Chamonix,musée alpin,89 avenue Michel Croz,La Résidence,74400,04 50 55 29 46,musee-alpin-chamonix.fr/fr/infos-pratiques,45.923429,6.871049,7405601
M1056,Auvergne-Rhône-Alpes,Haute-Savoie,Thônes,musée des Vallées de Thônes,2 rue Blanche,,74230,04 50 02 97 76,www.mairie-thones.fr/fr/information/102186/espace-museal,45.881618,6.324161,7428001
M1054,Auvergne-Rhône-Alpes,Haute-Savoie,Lovagny,musée Léon Marès,60 allée du château,Château de Montrottier,74330,04 50 46 23 02,www.chateaudemontrottier.com/,45.89818,6.040579,7415201
M1055,Auvergne-Rhône-Alpes,Haute-Savoie,Rumilly,musée de Rumilly et de l'Albanais,5 Place de la Manufacture,,74150,04 50 64 64 18,www.mairie-rumilly74.fr/vos-services-publics/culture/notre-histoire-musee-de-rumilly/,45.861683,5.947732,7422501
M1057,Auvergne-Rhône-Alpes,Haute-Savoie,Thonon-les-Bains,musée du Chablais,Square Eberbach,Château de Sonnaz,74200,04 50 70 69 49,www.thononlesbains.com/patrimoine-culturel/musee-du-chablais-thonon-les-bains/,46.37487,6.48177,7428102
M1052,Auvergne-Rhône-Alpes,Haute-Savoie,Annecy,musée-château,Place du château,,74000,04 50 33 87 30,musees.annecy.fr/,45.897263,6.124916,7401001
M0990,Auvergne-Rhône-Alpes,Isère,Aoste,musée des antiquités gallo-romaines,43 place du musée,,38490,04 76 32 58 27,www.mairie-aoste.org/newpage1,45.587605,5.60661,3801201
M0995,Auvergne-Rhône-Alpes,Isère,Grenoble,musée Stendhal,20 Grande Rue,,38000,04 76 86 52 08,www.bm-grenoble.fr/1083-musee-stendhal.htm,45.191481,5.728083,3818507
M0999,Auvergne-Rhône-Alpes,Isère,Hières-sur-Ambly,maison du patrimoine,place de l'Eglise,,38118,04 74 95 19 10,www.hieres-sur-amby.org/index.php?menu=2&ssmenu=51&type=4,45.797246,5.292625,3819001
M1006,Auvergne-Rhône-Alpes,Isère,Vienne,musée lapidaire Saint-Pierre,place Saint-Pierre,Eglise Saint-Pierre,38200,04 74 85 20 35,vienne.fr/nos-services/culture/les-musees/,45.523234,4.870694,3854402
M1007,Auvergne-Rhône-Alpes,Isère,Vienne,musée du cloître Saint-André-le-Bas,place du Jeu de Paume,,38200,04 74 85 18 49,vienne.fr/nos-services/culture/les-musees/,45.526967,4.873538,3854401
M0992,Auvergne-Rhône-Alpes,Isère,Echirolles,musée Géo-Charles,1 rue Géo-Charles,,38130,04 76 22 58 63,www.echirolles.fr/culture-sports-loisirs/expos-et-musees/musee-geo-charles,45.14935,5.699614,3815101
M0997,Auvergne-Rhône-Alpes,Isère,Grenoble,musée Saint-Laurent,place Saint-Laurent,,38000,04 76 44 78 68,musees.isere.fr/musee/musee-archeologique-saint-laurent,45.19778,5.731922,3818501
M1123,Auvergne-Rhône-Alpes,Isère,Allevard-les-Bains,musée Jadis Allevard,Parc des Forges,,38580,04 76 45 16 40,musees.le-gresivaudan.fr/musee-dallevard-2/,45.392543164884,6.07713543762491,3800601
M7038,Auvergne-Rhône-Alpes,Isère,Grenoble,muséum d'histoire naturelle,1 rue Dolomieu,,38000,04 76 44 05 35,www.grenoble.fr/1607-museum-de-grenoble.htm,45.188059,5.735163,3818503
M0993,Auvergne-Rhône-Alpes,Isère,Grand'Maison,conservatoire-musée des industries hydroélectriques,"Route du Lac, le Verney",,38114,04 76 80 78 00,www.musee-edf-hydrelec.com/,45.147612,6.049634,3800501
M0994,Auvergne-Rhône-Alpes,Isère,Grenoble,musée de Grenoble,5 place Lavalette,,38000,04 76 63 44 44,www.museedegrenoble.fr/,45.194026,5.732094,3818505
M1001,Auvergne-Rhône-Alpes,Isère,La Côte-Saint-André,musée Hector Berlioz,69 rue de La République,,38260,04 74 20 24 88,musees.isere.fr/musee/musee-hector-berlioz,45.393386,5.261189,3813001
M0991,Auvergne-Rhône-Alpes,Isère,Bourgoin-Jallieu,musée de Bourgoin-Jallieu,17 rue Victor Hugo,,38300,04 74 28 19 74,www.bourgoinjallieu.fr/loisirs/culture/musee,45.586588,5.279159,3805301
M0998,Auvergne-Rhône-Alpes,Isère,Grenoble,musée de la résistance et de la déportation,14 rue Hébert,,38000,04 76 42 38 53,musees.isere.fr/musee/musee-de-la-resistance-et-de-la-deportation-de-lisere,45.190041,5.735245,3818508
M1002,Auvergne-Rhône-Alpes,Isère,La Mure,musée du pays matheysin,Rue du Colonel Escallon,Maison Caral,38350,04 76 30 98 15,lamure.fr/category/culture/equipements-culturels/musee-matheysin,44.904362,5.784427,3826901
M1137,Auvergne-Rhône-Alpes,Isère,Voiron,musée Mainssieux,7 place Léon Chaloin,,38500,04 76 65 67 17,html#.YFtE-ZvjLZ4,45.356047,5.579652,3856301
M0996,Auvergne-Rhône-Alpes,Isère,Grenoble,musée dauphinois,30 rue Maurice Gignoux,Ancien Couvent de Sainte-Marie-d'En-Haut,38031,04 57 58 89 01,musees.isere.fr/musee/musee-dauphinois,45.1951875353051,5.72694453630147,3818502
M1000,Auvergne-Rhône-Alpes,Isère,L'Alpe-d'Huez,maison du patrimoine de l'Oisans,,route de La Poste,38750,04 76 11 21 74,www.alpedhuez.com/fr/hiver/selections-apidae/famille_plus-20167/musee-dhuez-et-de-loisans/,45.087019,6.068988,3819101
M1003,Auvergne-Rhône-Alpes,Isère,La Tronche,musée Hébert - d'Uckermann,Chemin Hébert,,38700,04 76 42 46 12,musees.isere.fr/musee/musee-hebert,45.205613,5.751334,3851601
M1004,Auvergne-Rhône-Alpes,Isère,Saint-Pierre-de-Chartreuse,musée de la Grande Chartreuse,,église Saint-Hugues,38380,04 76 88 65 01,www.musee-grande-chartreuse.fr/fr/,45.341728,5.814737,3844203
M1005,Auvergne-Rhône-Alpes,Isère,Vienne,musée des beaux-arts et d'archéologie,place de Miremont,,38200,04 74 85 50 42,vienne.fr/nos-services/culture/les-musees/,45.524069,4.87462,3854403
M1008,Auvergne-Rhône-Alpes,Isère,Vizille,musée départemental de la Révolution française,Domaine de Vizille,Place du château,38220,04 76 68 07 35,musees.isere.fr/musee/domaine-de-vizille-musee-de-la-revolution-francaise,45.08753,5.773234,3856201
M1187,Auvergne-Rhône-Alpes,Isère,Montferrat (Charavines),musée-parc archéologique du lac de Paladru,Place de l'église,,38850,04 76 55 77 47,www.paysvoironnais.info/musee-archeologique-du-lac-de-paladru/charavines/musee.html#.YFtioJvjLZ4,45.428526,5.51555,3808201
M1212,Auvergne-Rhône-Alpes,Isère,Vif,musée Champollion,,45 Rue Champollion,38450,04 57 58 88 50,https://musees.isere.fr/,45.050408,5.6692,
M1013,Auvergne-Rhône-Alpes,Loire,Estivareilles,musée de l'armée secrète et de la résistance,456 route du musée,,42380,04 77 50 29 20,estivareilles42.fr/2019/04/11/le-musee/,45.415906,4.010414,4209101
M1020,Auvergne-Rhône-Alpes,Loire,Roanne,musée Joseph Déchelette,22 rue Anatole France,Hôtel Valence de la Minardière,42300,04 77 23 68 77,www.museederoanne.fr/musee-des-beaux-arts-et-d-archeologie-joseph-dechelette-site-officiel-2017.html,46.034953,4.069842,4218701
M1023,Auvergne-Rhône-Alpes,Loire,Saint-Etienne,musée d'art et d'industrie,2 Place Comte,,42000,04 77 49 73 00,www.musee-art-industrie.saint-etienne.fr/,45.431538,4.387485,4221802
M1024,Auvergne-Rhône-Alpes,Loire,Saint-Etienne,musée d'art moderne et contemporain de Saint-Etienne Métropole - musée d'art moderne,La Terrasse,BP 80241,42006,04 77 79 52 52,mamc.saint-etienne.fr/fr,45.4696479351555,4.37452686329321,4221801
M1027,Auvergne-Rhône-Alpes,Loire,Saint-Germain-Laval,musée municipal,place de l'Hôtel de Ville,,42260,04 77 65 41 30,,45.830168,4.010608,4223001
M1012,Auvergne-Rhône-Alpes,Loire,Chazelles-sur-Lyon,musée du chapeau,31 rue Martouret,La Chapellerie,42140,04 77 94 23 29,www.museeduchapeau.com/,45.638304,4.394089,4205901
M1029,Auvergne-Rhône-Alpes,Loire,Usson-en-Forez,musée rural,Quartier Saint-Joseph Place Alex Folléas,,42550,04 77 50 67 97,www.ecomusee-usson-en-forez.fr/,45.392445,3.943885,4231801
M1009,Auvergne-Rhône-Alpes,Loire,Ambierle,musée Alice Taverne,89 rue de la Grye,,42820,04 77 65 60 99,museealicetaverne.fr/,46.105434,3.896167,4200301
M1011,Auvergne-Rhône-Alpes,Loire,Charlieu,musée hospitalier,9 boulevard du Général Leclerc,,42190,04 77 60 28 84,musees-de-charlieu.webnode.fr/museehospitalier/,46.160301,4.17052,4205203
M1010,Auvergne-Rhône-Alpes,Loire,Charlieu,musée de la soierie,9 Boulevard Leclerc,,42190,04 77 60 28 84,musees-de-charlieu.webnode.fr/,46.160301,4.17052,4205202
M1014,Auvergne-Rhône-Alpes,Loire,Feurs,musée de Feurs,3 rue Victor de Laprade,,42110,04 77 26 24 48,www.feurs.org/culture/musee-d-archeologie.html,45.744191,4.219803,4209401
M1017,Auvergne-Rhône-Alpes,Loire,Montbrison,musée de la Diana,Rue Florimont Robertet,La Diana,42600,04 77 96 01 10,www.ladiana.com,45.60543,4.066822,4214702
M1025,Auvergne-Rhône-Alpes,Loire,Saint-Etienne,musée de la mine,3 Boulevard Franchet d'Esperey,Puits Couriot / Parc-Musée de la Mine ; Parc Joseph Sanguedolce,42000,04 77 43 83 23,www.musee-mine.saint-etienne.fr/,45.438944,4.376487,4221804
M1016,Auvergne-Rhône-Alpes,Loire,Montbrison,musée d'Allard,13 boulevard de la Préfecture,,42600,04 77 96 39 15,www.ville-montbrison.fr/annuaire/musee-dallard/,45.608241,4.06195,4214701
M1018,Auvergne-Rhône-Alpes,Loire,Pommiers-en-Forez,musée du vieux Pommiers,Vieux village,Maison privée,42260,04 77 65 40 63,,45.830522,4.104776,4217301
M1026,Auvergne-Rhône-Alpes,Loire,Saint-Etienne-le-Molard,château de la Bastie d'Urfé,1061 route de la Bâtie d'Urfé,,42130,04 77 97 54 68,www.loire.fr/jcms/c_743949/la-batie-d-urfe,45.728472,4.078512,4221901
M1028,Auvergne-Rhône-Alpes,Loire,Saint-Just-Saint-Rambert,musée des civilisations : Daniel Pouget,Place Madeleine Rousseau,,42170,04 77 52 03 11,www.stjust-strambert.fr/sorties-et-loisirs/culture-et-evenements/musee-des-civilisations-daniel-pouget/,45.500657,4.242057,4227901
M0128,Auvergne-Rhône-Alpes,Puy-de-Dôme,Riom,musée régional d'Auvergne,10 bis rue Delille,,63200,04 73 38 17 31,www.rlv.eu/decouvrir/musees/musee-regional-d-auvergne.html,45.895037,3.116254,6330003
M0130,Auvergne-Rhône-Alpes,Puy-de-Dôme,Volvic,musée Marcel Sahut,2 rue des Ecoles,Château de Bosredon,63530,04 73 33 57 33,www.ville-volvic.fr/musee-marcel-sahut,45.872614,3.038881,6347001
M0121,Auvergne-Rhône-Alpes,Puy-de-Dôme,Clermont-Ferrand,musée d'art Roger-Quillot,Place Louis Deteix,Ancien Couvent des Ursulines de Montferrand,63100,04 43 76 25 25,www.clermontmetropole.eu/bouger-se-divertir/le-dynamisme-culturel/les-musees-de-clermont-auvergne-metropole/marq-musee-dart-roger-quilliot/,45.793027,3.07827,6311305
M0123,Auvergne-Rhône-Alpes,Puy-de-Dôme,Lezoux,musée de céramique gallo-romaine,"39, rue de la République",,63190,473734242,musee-ceramique.puy-de-dome.fr/le-musee.html,45.827628,3.383654,6319501
M0124,Auvergne-Rhône-Alpes,Puy-de-Dôme,Marsac-en-Livradois,musée des pénitents blancs,place de l'Eglise,,63940,04  73 95 60 08,www.vacances-livradois-forez.com/patrimoine-culturel/chapelle-musee-des-penitents-blancs-marsac-en-livradois/,45.478967,3.728534,6321101
M0126,Auvergne-Rhône-Alpes,Puy-de-Dôme,Murol,musée municipal,Château de Murol,,63790,04 73 88 67 10,murolchateau.com/,45.590429,2.921508,6324701
M0127,Auvergne-Rhône-Alpes,Puy-de-Dôme,Riom,musée Francisque Mandet,"14, rue de l'Hôtel de ville",,63200,04 73 38 18 53,www.rlv.eu/decouvrir/musees/musee-mandet.html,45.893874,3.116508,6330002
M0129,Auvergne-Rhône-Alpes,Puy-de-Dôme,Thiers,musée municipal de la coutellerie,58 rue de la Coutellerie,Hôtel des Echevins,63300,04 73 80 58 86,ville-thiers.fr/le-musee-de-la-coutellerie/,45.852318,3.548029,6343001
M0125,Auvergne-Rhône-Alpes,Puy-de-Dôme,Mozac,musée lapidaire,place de l'Abbaye,Abbaye,63200,04 73 38 18 53,www.ville-mozac.com/La-crypte-et-le-musee-lapidaire.html,45.892133,3.094609,6324501
M7032,Auvergne-Rhône-Alpes,Puy-de-Dôme,Clermont-Ferrand,muséum d'histoire naturelle Lecoq,"15, rue Bardoux",Hôtel particulier Henri Lecoq,63000,04 43 76 25 60,www.clermontmetropole.eu/bouger-se-divertir/le-dynamisme-culturel/les-musees-de-clermont-auvergne-metropole/museum-henri-lecoq/,45.774138,3.088299,6311303
M7045,Auvergne-Rhône-Alpes,Puy-de-Dôme,Menat,musée paléontologique,Place de la Mairie,Le gîte à fossiles,63560,04 73 85 54 62,www.menat.fr/spip.php?article29,46.103652,2.904431,6322301
M0119,Auvergne-Rhône-Alpes,Puy-de-Dôme,Arlanc,musée de la dentelle,53 route nationale,Hôtel de ville,63220,04 73 95 00 03,arlanc.fr/accueil/20-le-musee-de-la-dentelle.html,45.414373,3.724421,6301001
M0120,Auvergne-Rhône-Alpes,Puy-de-Dôme,Clermont-Ferrand,musée Bargoin,"45, rue Ballainvilliers",,63000,04.43.76.25.50,www.clermontmetropole.eu/bouger-se-divertir/le-dynamisme-culturel/les-musees-de-clermont-auvergne-metropole/musee-bargoin/,45.774229,3.0869,6311301
M1031,Auvergne-Rhône-Alpes,Rhône,Lyon,musée des beaux-arts,20 place des Terreaux,,69001,04 72 10 17 40,www.mba-lyon.fr/fr,45.767177,4.833576,6938102
M1032,Auvergne-Rhône-Alpes,Rhône,Lyon,musée Gadagne,1 place du Petit Collège,Hôtel de Gadagne,69005,04 78 42 03 61,www.gadagne-lyon.fr/,45.763856,4.827749,6938501
M1034,Auvergne-Rhône-Alpes,Rhône,Lyon,centre d'histoire de la résistance,14 avenue Berthelot,,69007,04 78 72 23 11,www.chrd.lyon.fr/,45.747037,4.835797,6938701
M1036,Auvergne-Rhône-Alpes,Rhône,Lyon,"Lugdunum, musée et théâtres romains",17 rue Cléberg,,69005,04 72 38 49 30,lugdunum.grandlyon.com/fr/,45.760529,4.82004,6938502
M1038,Auvergne-Rhône-Alpes,Rhône,Lyon,musée historique des tissus,"34, rue de la Charité",,69002,04 78 38 42 07,www.museedestissus.fr/,45.753117,4.831633,6912301
M1039,Auvergne-Rhône-Alpes,Rhône,Lyon,musée des hospices civils de Lyon,3 quai des Célestins,,69002,07.89.87.01.85 / 04.72.40.75.74,www.chu-lyon.fr/fr/musee-des-hcl,45.760912,4.831492,6938201
M1040,Auvergne-Rhône-Alpes,Rhône,Rochetaille-sur-Saône,musée Henri Malartre,645 rue du Musée 69270 Rochetaillée sur Saône,Château,69270,04 78 22 18 80,www.musee-malartre.com,45.84492,4.837207,6916801
M1140,Auvergne-Rhône-Alpes,Rhône,Amplepuis,musée Barthélemy-Thimonier,Place de l'Hôtel de Ville,,69550,04 74 89 08 90,musees.ouestrhodanien.fr/musee-barthelemy-thimonnier.html,45.972502,4.331417,6900601
M7042,Auvergne-Rhône-Alpes,Rhône,Lyon,musée des Confluences,86 quai Perrache,,69002,04 28 38 11 90,www.museedesconfluences.fr/,45.73319,4.818042,6938603
M1033,Auvergne-Rhône-Alpes,Rhône,Lyon,musée d'art contemporain,quai Charles de Gaulle,81 Cité internationale,69006,04 72 69 17 17,www.mac-lyon.com/fr,45.784864,4.852921,6938101
M1128,Auvergne-Rhône-Alpes,Rhône,Lyon,musée des sapeurs-pompiers de Lyon,358 avenue de Champagne,Centre de secours principal,69009,04 72 17 54 54,museepompiers.com/,45.790491,4.797411,6938901
M1127,Auvergne-Rhône-Alpes,Rhône,Lyon,musée de l'imprimerie et de la communication graphique,13 rue de la Poulaillerie,,69002,04 78 37 65 98,www.imprimerie.lyon.fr/fr,45.764219,4.834752,6912304
M7042,Auvergne-Rhône-Alpes,Rhône,Lyon,musée Guimet,86 quai Perrache,,69002,04 28 38 11 90,www.museedesconfluences.fr/,45.73319,4.818042,6938603
M1030,Auvergne-Rhône-Alpes,Rhône,Beaujeu,musée folklorique et des traditions populaires,Place de l'Hôtel de Ville,,69430,04 74 69 22 88,beaujeu.reseaudesvilles.fr/fr/information/97744/musee-marius-audin,46.154524,4.587482,6901801
M1037,Auvergne-Rhône-Alpes,Rhône,Lyon,musée des arts décoratifs,34 rue de la charité,,69002,,www.museedestissus.fr/,45.75342,4.83153,
M1041,Auvergne-Rhône-Alpes,Rhône,Villefranche-sur-Saône,musée Paul Dini,2 Place Faubert,,69400,474683370,musee-paul-dini.com/,45.990936,4.721527,6926401
M1156,Auvergne-Rhône-Alpes,Rhône,Saint-Romain-en-Gal,musée archéologique,RD 502,,69483,04 74 53 74 01,musee-site.rhone.fr/,45.52955632679911,4.8731588394774645,6923501
M1185,Auvergne-Rhône-Alpes,Rhône,Marnand,écomusée du Haut Beaujolais,570 chemin des pierres plantées,La Manufacture,69240,04 74 64 06 48,musees.ouestrhodanien.fr/ecomusee-du-haut-beaujolais.html,46.037849,4.315548,6924801
M7042,Auvergne-Rhône-Alpes,Rhône,Lyon,muséum d'histoire naturelle,86 quai Perrache,,69002,04 28 38 11 90,www.museedesconfluences.fr/,45.73319,4.818042,6938603
M1046,Auvergne-Rhône-Alpes,Savoie,Albertville,musée municipal d'Albertville-Conflans,Grande place Conflans,Maison Rouge,73200,04 79 37 86 86,www.albertville.fr/culture/musee-art-histoire/,45.670787,6.397471,7301101
M1047,Auvergne-Rhône-Alpes,Savoie,Bourg-Saint-Maurice,musée du costume,Hauteville-Gondon,Place de l'église,73700,04 79 07 23 33,,45.597053,6.760997,7305401
M1048,Auvergne-Rhône-Alpes,Savoie,Chambéry,musée des beaux-arts,place du Palais de Justice,Ancienne Grenette,73000,04 79 33 75 03,www.chambery.fr/88-les-musees.htm,45.567896,5.919306,7306501
M1050,Auvergne-Rhône-Alpes,Savoie,Chambéry,musée Savoisien,Square de Lannoy de Bissy,Ancien Couvent des Franciscains,73000,04 79 33 44 48,www.savoie.fr/web/sw_64583/le-musee-savoisien-poursuit-sa-renovation,45.571174,5.875158,7306502
M1051,Auvergne-Rhône-Alpes,Savoie,Moûtiers,musée de l'académie de la Val d'Isère,23 place Saint-Pierre,Centre culturel Marius Hudry,73600,04 79 24 04 23,academie.sup.fr/,45.483424,6.532778,7318101
M1044,Auvergne-Rhône-Alpes,Savoie,Aix-les-Bains,musée archéologique,Place Maurice Mollard,Hôtel de ville,73103,04 79 61 06 57,,45.688633826005,5.91560092520636,7300802
M1049,Auvergne-Rhône-Alpes,Savoie,Chambéry,musée des Charmettes,890 Chemin des Charmettes,,73000,04 79 33 39 44,www.chambery.fr/302-les-charmettes.htm,45.552732,5.93011,7306503
M7029,Auvergne-Rhône-Alpes,Savoie,Chambéry,muséum d'histoire naturelle,208 avenue de Lyon,,73000,04 79 33 39 44,,45.563911,5.916266,7306504
M1043,Auvergne-Rhône-Alpes,Savoie,Aime-en-Tarentaise,musée archéologique et minéralogique Pierre Borrione,Montée de Saint Sigismond - Aime,Chapelle Saint Sigismond,73210,04 79 55 67 00,www.la-plagne.com/decouvrir-la-plagne/le-patrimoine/histoire-locale/savoir-faire-histoire-locale/des-pierres-et-des-hommes-espace-archeologique-pierre-borrione,45.559416,6.651415,7300601
M1045,Auvergne-Rhône-Alpes,Savoie,Aix-les-Bains,musée du docteur Faure,10 boulevard des Côtes,Villa des Chimères,73100,04 79 61 06 57,www.aixlesbains.fr/fre/culture/museefaure,45.692157,5.915578,7300801
M0131,Bourgogne-Franche-Comté,Côte-d'Or,Alise-Sainte-Reine,musée Alésia - centre d'interprétation,1 route des Trois Ormeaux,,21150,03 80 96 96 23,www.alesia.com/,47.536592,4.469595,2100801
M0133,Bourgogne-Franche-Comté,Côte-d'Or,Beaune,musée du vin de Bourgogne,Rue d'Enfer - Rue Paradis,Hôtel des Ducs,21200,03 80 22 08 19,www.beaune.fr/spip.php?rubrique171,47.023618,4.837574,2105401
M0135,Bourgogne-Franche-Comté,Côte-d'Or,Buffon,musée de la sidérurgie en Bourgogne du Nord,La Grande Forge,,21500,03 80 92 10 35,www.grandeforgedebuffon.fr/,47.649485,4.260891,2111401
M0137,Bourgogne-Franche-Comté,Côte-d'Or,Dijon,musée des beaux-arts,1 place de la Ste Chapelle,"Palais des Etats de Bourgogne, Dijon Cedex",21000,03 80 74 52 09,beaux-arts.dijon.fr/,47.321356,5.042873,2123104
M0147,Bourgogne-Franche-Comté,Côte-d'Or,Semur-en-Auxois,musée municipal,3 Rue Jean-Jacques Collenot,,21140,03 80 97 24 25,www.facebook.com/museedesemurenauxois/,47.490137,4.336452,2160301
M1208,Bourgogne-Franche-Comté,Côte-d'Or,Dijon,musée d'art sacré,15 rue Sainte-Anne,Eglise du Monastère des Bernardines,21000,03 80 48 80 90,www.dijon.fr/Sortir-Bouger/Musees-Galerie-d-arts-et-expositions/Le-musee-d-art-sacre,47.317559,5.037282,2123107
M7035,Bourgogne-Franche-Comté,Côte-d'Or,Dijon,muséum d'histoire naturelle,Parc de l'Arquebuse 1 avenue Albert 1er et 14 rue Jehan de Marville,Jardin de l'Arquebuse,21000,03 80 48 82 00,dijon.fr/Sortir-Bouger/Musees-Galerie-d-arts-et-expositions/Le-museum,47.322357,5.025636,2123105
M0134,Bourgogne-Franche-Comté,Côte-d'Or,Beaune,musée des beaux-arts,6 boulevard Perpreuil - 19 rue Poterne,Porte Marie de Bourgogne,21200,03 80 24 98 70,www.beaune.fr/culture-et-loisirs/musees/musee-des-beaux-arts/,47.02097,4.839393,2105402
M0143,Bourgogne-Franche-Comté,Côte-d'Or,Montbard,musée Buffon,rue du Parc Buffon,Anciennes Ecuries de Buffon,21506,03 80 92 50 42,www.musee-parc-buffon.fr/,47.6257858811458,4.33698593636596,2142501
M0136,Bourgogne-Franche-Comté,Côte-d'Or,Chatillon-sur-Seine,musée du Châtillonnais,14 Rue de la Libération,Ancienne abbaye Notre-Dame,21400,03 80 91 24 67,www.musee-vix.fr/fr/,47.863791,4.574632,2115401
M0139,Bourgogne-Franche-Comté,Côte-d'Or,Dijon,musée de la vie bourguignonne,17 rue Sainte-Anne,Ancien monastère des Bernardines,21000,03 80 48 80 90,vie-bourguignonne.dijon.fr/,47.317415,5.037131,2123106
M0141,Bourgogne-Franche-Comté,Côte-d'Or,Fixin,musée Noisot,Parc Noisot,Parc Noisot,21220,03 80 52 45 52,www.mairiedefixin.fr/musee-noisot,47.245363,4.962515,2126501
M0146,Bourgogne-Franche-Comté,Côte-d'Or,Saulieu,musée François Pompon,"3, place du docteur Roclore",,21210,03 80 64 19 51,saulieu.fr/musee-francois-pompon/#pompon,47.279459,4.229714,2158401
M0140,Bourgogne-Franche-Comté,Côte-d'Or,Dijon,musée Rude,"8, rue Vaillant",Eglise Saint-Etienne,21000,03 80 74 52 09,beaux-arts.dijon.fr/,47.32122,5.043978,2123101
M1206,Bourgogne-Franche-Comté,Côte-d'Or,Beaune,musée Marey,6 boulevard Perpreuil - 19 rue Poterne,Porte Marie de Bourgogne,21200,03 80 24 56 92,,47.02097,4.839393,2105404
M5011,Bourgogne-Franche-Comté,Côte-d'Or,Dijon,musée national Magnin,"4, rue des Bons-Enfants",,21000,03 80 67 11 10,/musee-magnin.fr/,47.320958,5.042189,2123103
M0132,Bourgogne-Franche-Comté,Côte-d'Or,Auxonne,musée Bonaparte,Rue du Château,Château Louis XI,21130,03 80 37 34 46,www.auxonne.fr/musee-bonaparte,47.190963,5.383768,2103801
M0138,Bourgogne-Franche-Comté,Côte-d'Or,Dijon,musée archéologique,"5, rue Docteur Maret",Ancienne abbaye Saint-Bénigne,21000,03 80 48 83 70,archeologie.dijon.fr/,47.321873,5.034107,2123102
M0142,Bourgogne-Franche-Comté,Côte-d'Or,Montbard,musée des beaux-arts,rue Piron,,21500,03 80 92 50 42,,47.624491,4.336901,2142502
M0144,Bourgogne-Franche-Comté,Côte-d'Or,Nuits-Saint-Georges,musée municipal,"12, rue Camille Rodier",Ancienne Maison de Vins,21700,03 80 62 01 37,www.ot-nuits-st-georges.fr/accueil/,47.138661,4.950405,2146401
M0145,Bourgogne-Franche-Comté,Côte-d'Or,Reulle-Vergy,musée des arts et traditions des Hautes-Côtes,Place de la Fontaine,,21220,03 80 61 42 93/40 95,,47.187026,4.895293,2125401
M0332,Bourgogne-Franche-Comté,Doubs,Besançon,musée des beaux-arts et d'archéologie,1 place de la Révolution - Place du marché,Ancienne halle aux grains,25000,03 81 87 80 67,www.mbaa.besancon.fr/,47.240055,6.022938,2505601
M0338,Bourgogne-Franche-Comté,Doubs,Nancray,musée de plein air des maisons comtoises,rue du musée,,25360,03 81 55 29 77,www.maisons-comtoises.org/,47.242984,6.18963,2541801
M0340,Bourgogne-Franche-Comté,Doubs,Pontarlier,musée municipal,2 place d'Arçon,Maison Labrut,25300,03 81 38 82 16,www.ville-pontarlier.fr/page/activites-et-loisirs/activites-culture/musee-municipal/infos-pratique-2,46.904221,6.354581,2546201
M0334,Bourgogne-Franche-Comté,Doubs,Besançon,musée comtois,"2, rue Mégevand",Citadelle -Patrimoine mondial,25000,03 81 87 83 33,www.citadelle.com/fr/le-musee-comtois.html,47.236687,6.022095,2505604
M0335,Bourgogne-Franche-Comté,Doubs,Besançon,musée de la résistance et de la déportation,99 rue des Fusillés,La Citadelle,25042,03 81 87 83 12,www.citadelle.com/fr/le-musee-de-la-resistance-et-de-la-deportation.html,47.2293384766158,6.03523660871943,2505605
M0337,Bourgogne-Franche-Comté,Doubs,Montbéliard,musée du château,Cour du Château,Le Château,25205,03 81 99 22 61,www.montbeliard.fr/mes-sorties-mes-activites/musees-de-montbeliard.html,47.5095298027838,6.8008575563676,2538802
M7011,Bourgogne-Franche-Comté,Doubs,Besançon,muséum d'histoire naturelle,"2, rue Mégevand","La Citadelle - patrimoine mondial, Besançon cedex",25000,03 81 87 83 05,www.citadelle.com/fr/museum-espaces-animaliers.html,47.236687,6.022095,2505607
M0339,Bourgogne-Franche-Comté,Doubs,Ornans,musée Gustave Courbet,Place Robert Fernier,,25290,03 81 86 22 88,www.musee-courbet.fr/,47.104874,6.147697,2543401
M0333,Bourgogne-Franche-Comté,Doubs,Besançon,musée du temps,96 Grande rue,Palais Granvelle,25000,03 81 87 81 61,www.mdt.besancon.fr/,47.235978,6.0268,2505602
M0336,Bourgogne-Franche-Comté,Doubs,Montbéliard,musée Beurnier-Rossel,8 place Saint-Martin,Hôtel Beurnier-Rossel,25200,03 81 99 23 90,www.montbeliard.fr/mes-sorties-mes-activites/musees-de-montbeliard.html,47.509957,6.797684,2538801
M0357,Bourgogne-Franche-Comté,Haute-Saône,Gray,musée Baron Martin,6 rue Pigalle,château,70100,03 84 65 69 10,www.musee-baronmartin.fr/,47.446411,5.592781,7027901
M0354,Bourgogne-Franche-Comté,Haute-Saône,Champlitte,musée départemental Albert Demard,Château de Champlitte,,70600,03 84 95 76 00,musees.haute-saone.fr/,47.617066,5.517093,7012201
M0356,Bourgogne-Franche-Comté,Haute-Saône,Fougerolles,écomusée du pays de la cerise,"206, le Petit Fahys",,70220,03 84 49 52 50,ecomusee-fougerolles.fr/,47.9073179279807,6.40082191296565,7024501
M0355,Bourgogne-Franche-Comté,Haute-Saône,Château-Lambert,musée départemental de la montagne Albert Demard,3 place du 19 mars 1962,Château-Lambert,70440,03 84 20 43 09,musees.haute-saone.fr/chateau-lambert/,47.836247,6.734944,7013901
M0358,Bourgogne-Franche-Comté,Haute-Saône,Luxeuil-les-Bains,musée de la Tour des échevins,"36, rue Victor-Genoux",Tour des Echevins,70300,03 84 40 00 07,www.ville-luxeuil-les-bains.fr/musees.htm,47.816821,6.380482,7031101
M0359,Bourgogne-Franche-Comté,Haute-Saône,Vesoul,musée municipal Georges Garret,1 rue des Ursulines,Couvent des Ursulines,70000,03 84 76 51 54,www.vesoul.fr/sortir-bouger-se-divertir/musee-georges-garret.html,47.623695,6.155771,7055001
M0348,Bourgogne-Franche-Comté,Jura,Moirans-en-Montagne,musée du jouet,5 rue du Murgin,,39260,03 84 42 38 64,www.musee-du-jouet.com/,46.433004,5.726307,3933301
M0351,Bourgogne-Franche-Comté,Jura,Poligny,musée municipal,49 grande rue,Mairie,39800,03 84 73 71 71,www.musee-poligny.fr/,46.836426,5.708802,3943401
M0353,Bourgogne-Franche-Comté,Jura,Salins-les-Bains,Musée de la Grande Saline,3 Place des Salines,Grande Saline,39110,03 84 73 10 92,www.salinesdesalins.com/,46.937242,5.876684,3950001
M0344,Bourgogne-Franche-Comté,Jura,Champagnole,musée municipal d'archéologie,26 rue Baronne-Delort,,39300,03 84 53 01 44,www.champagnole.fr/item/musee-archeologique/,46.74651,5.907547,3909701
M0347,Bourgogne-Franche-Comté,Jura,Dole,musée des beaux-arts et d'archéologie,85 rue des Arènes,Pavillon des Officiers,39100,03 84 79 25 85,www.doledujura.fr/musee-des-beaux-arts/,47.089059,5.488205,3919801
M0350,Bourgogne-Franche-Comté,Jura,Morez,Viséum-musée de la lunette (collections du musée de la lunette et du musée Jourdain),Place Jean Jaurès,Morez,39400,03 84 33 39 30,www.musee-lunette.fr/fr,46.521,6.022578,3936801
M1169,Bourgogne-Franche-Comté,Jura,Saint-Claude,musée de beaux-arts,3 place de l'abbaye,,39200,03 84 38 12 60,museedelabbaye.fr/home/anim.php,46.386209,5.865239,3947801
M0341,Bourgogne-Franche-Comté,Jura,Arbois,musée Sarret de Grozon,9 Grande rue,hôtel particulier,39600,03 84 37 47 90,www.arbois.fr/musee-d-art-hotel-sarret-de-grozon.htm,46.902604,5.774717,3901301
M0343,Bourgogne-Franche-Comté,Jura,Baume-les-Messieurs,musée de l'artisanat jurassien,22 Rue de l'Abbaye,,39210,03 84 87 35 91,,46.70795,5.648585,3904101
M0345,Bourgogne-Franche-Comté,Jura,Lons-le-Saunier,musée des beaux-arts,place Philibert de Chalon,Hôtel de ville,39000,03 84 47 64 30,www.lonslesaunier.fr/les-musees/musee-des-beaux-arts/,46.675861,5.553907,3930002
M0342,Bourgogne-Franche-Comté,Jura,Arbois,musée de la vigne et du vin,,Château Pécauld,39600,03 84 66 40 45,www.arbois.fr/musee-de-la-vigne-et-du-vin-du-jura.htm,46.902412,5.773686,3901302
M0346,Bourgogne-Franche-Comté,Jura,Lons-le-Saunier,musée d'archéologie,133 rue René Maire,Centre de Conservation et d’Etude René Rémond,39000,03 84 86 11 73,www.lonslesaunier.fr/les-musees/musee-darcheologie/,46.684566,5.579336,3930001
M0149,Bourgogne-Franche-Comté,Nièvre,Château-Chinon,musée du Septennat,"6, rue du Château",,58120,03 86 85 19 23,nievre.fr/cadre-de-vie/culture-et-patrimoine/musees/cite-museale/,47.06721,3.934311,5806201
M0151,Bourgogne-Franche-Comté,Nièvre,Cosne-Cours-sur-Loire,musée de la Loire,place de La Résistance,,58200,03 86 26 71 02,www.museedelaloire.fr/,47.410548,2.922768,5808601
M0155,Bourgogne-Franche-Comté,Nièvre,Nevers,musée de la faïence Frédéric Blandin,"16, rue St-Genest",,58000,03 86 68 44 60,culture.nevers.fr/musee/,46.98629,3.155037,5819402
M0150,Bourgogne-Franche-Comté,Nièvre,Clamecy,musée d'art et d'histoire Romain Rolland,Avenue de la République,Hôtel de Bellegarde ; maison natale de Romain Rolland,58500,03 86 27 17 99,www.clamecy.fr/index.php/Mus%C3%A9e-d-Art-et-d-Histoire-Romain-Rolland?idpage=320&idmetacontenu=,47.460604,3.520823,5807901
M0152,Bourgogne-Franche-Comté,Nièvre,La Charité-sur-Loire,musée municipal,8 cour du Château,Hôtel Adam,58400,03 86 57 99 40,,47.178081,3.016449,5805901
M0158,Bourgogne-Franche-Comté,Nièvre,Saint-Amand-en-Puysance,musée du grès,Grande rue,Château,58310,03 86 39 74 97,nievre.fr/cadre-de-vie/culture-et-patrimoine/musees/saint-amand-en-puisaye-musee-du-gres/,47.529775,3.07388,5822701
M0157,Bourgogne-Franche-Comté,Nièvre,Pouilly-sur-Loire,musée Ernest Guedon,"17, quai Jules-Pabiot",,58150,03 86 93 54 54,,47.285947,2.949487,5821501
M0159,Bourgogne-Franche-Comté,Nièvre,Varzy,musée Auguste Grasset,Place de la Mairie,,58210,03 86 29 72 03,varzy.fr/vie-municipale/musee-municipal-auguste-grasset/,47.357394,3.386114,5830401
M0148,Bourgogne-Franche-Comté,Nièvre,Château-Chinon,musée du costume,"6, rue du Château",,58120,03 86 85 18 55,nievre.fr/cadre-de-vie/culture-et-patrimoine/musees/cite-museale/,47.06721,3.934311,5806202
M0153,Bourgogne-Franche-Comté,Nièvre,La Machine,musée de la mine,1 avenue de La République,,58260,03 86 50 91 08,nievre.fr/cadre-de-vie/culture-et-patrimoine/musees/la-machine-musee-de-la-mine/,46.889225,3.463514,5815101
M0156,Bourgogne-Franche-Comté,Nièvre,Nevers,musée archéologique de la porte du Croux,Rue de la Porte-du-Croux,Ancienne tour-porte médiévale,58000,03 86 59 17 85,www.nevers.fr/vivre-a-nevers/culture/les-musees/le-musee-archeologique-du-nivernais-porte-du-croux,46.986949,3.154223,5819403
M0163,Bourgogne-Franche-Comté,Saône-et-Loire,Blanzy,musée de la mine et des hommes,"34, rue du Bois-Clair",Ancien puits de mine Saint-Claude,71450,03 85 68 22 85,www.musee-mine-blanzy.fr/,46.701488,4.382962,7104001
M0175,Bourgogne-Franche-Comté,Saône-et-Loire,Paray-le-Monial,musée municipal,,,71600,,,46.450396,4.119117,
M0179,Bourgogne-Franche-Comté,Saône-et-Loire,Romenay,musée du terroir,Place de l'Eglise,,71470,03 85 76 27 16,www.ecomusee-bresse71.fr/,46.503251,5.067591,7137301
M7019,Bourgogne-Franche-Comté,Saône-et-Loire,Autun,muséum d'histoire naturelle,"12-14, rue Saint-Antoine",,71400,03 85 52 09 15,www.autun.com/sortir-a-autun/les-lieux-de-loisirs/le-museum-dhistoire-naturelle,46.947996,4.301812,7101404
M0166,Bourgogne-Franche-Comté,Saône-et-Loire,Chalon-sur-Saône,musée Nicéphore Niepce,"28, quai des Messageries",Hôtel des Messageries Royales,71100,03 85 48 41 98,www.museeniepce.com/,46.780045,4.855727,7107602
M0168,Bourgogne-Franche-Comté,Saône-et-Loire,Charolles,musée du Prieuré Jean Laronze,4 rue du Prieuré,Prieuré de Charolles,71120,385242474,www.ville-charolles.fr/musees,46.432412,4.279872,7110602
M0173,Bourgogne-Franche-Comté,Saône-et-Loire,Mâcon,musée Lamartine,"5, rue de la Préfecture",Ancien couvent des Ursulines,71000,03 85 39 90 38,www.macon.fr/vivre-et-bouger-a-macon/culture/musee-des-ursulines,46.307508,4.833156,7127001
M0180,Bourgogne-Franche-Comté,Saône-et-Loire,Solutré-Pouilly,musée départemental de préhistoire,Chemin de la Roche,,71960,03 85 35 85 24,rochedesolutre.com/musee-de-prehistoire/,46.295079,4.732247,7152601
M0183,Bourgogne-Franche-Comté,Saône-et-Loire,Verdun-sur-le-Doubs,maison du blé et du pain,rue du Pont,,71350,03 85 91 57 09,www.ecomusee-bresse71.fr/,46.897337,5.024918,7156601
M0181,Bourgogne-Franche-Comté,Saône-et-Loire,Tournus,musée Greuze - hôtel-Dieu,21 rue de l'Hôpital,Hôtel-Dieu,71700,03 85 51 23 50,musee-greuze.fr/,46.562137,4.910839,7154301
M0161,Bourgogne-Franche-Comté,Saône-et-Loire,Autun,musée Rolin,"3, rue des Bancs",,71400,03 85 52 09 76,www.museerolin.fr/node/132,46.945723,4.299216,7101402
M0165,Bourgogne-Franche-Comté,Saône-et-Loire,Chalon-sur-Saône,musée Vivant Denon,Place de l'Hôtel de Ville,,71100,03 85 94 74 41/48 29 52,www.museedenon.com/,46.78105,4.853082,7107601
M0167,Bourgogne-Franche-Comté,Saône-et-Loire,Charolles,musée René Davoine,"32, rue René Davoine",,71120,385242474,www.ville-charolles.fr/musee-du-prieure-jean-laronze,46.431434,4.273059,7110601
M0170,Bourgogne-Franche-Comté,Saône-et-Loire,Le Creusot - Montceau-les-Mines,écomusée de la communauté Le Creusot - Montceau-les-Mines,BP 53,Château de la Verrerie,71200,03 85 73 92 00,www.ecomusee-creusot-montceau.fr/spip.php?rubrique51,46.80448,4.428059,7115301
M0171,Bourgogne-Franche-Comté,Saône-et-Loire,Louhans,musée municipal,29 rue des Dodânes,,71270,03 85 76 03 41,www.louhans-chateaurenaud.fr/culture-et-patrimoine/monuments-et-musees/155-le-musee-municipal,46.87264,5.275048,7126301
M0177,Bourgogne-Franche-Comté,Saône-et-Loire,Pierre-de-Bresse,écomusée de la Bresse bourguignonne,BP 12,Château départemental,71270,03 85 76 27 16,www.ecomusee-bresse71.fr/,46.88298,5.261603,7135101
M1199,Bourgogne-Franche-Comté,Saône-et-Loire,Saint-Léger-sous-Beuvray,musée de Bibracte,Col du Rebout,Mont Beuvray,71990,03 85 86 52 35,www.bibracte.fr/,46.934539,4.062979,7144001
M0160,Bourgogne-Franche-Comté,Saône-et-Loire,Autun,musée lapidaire Saint-Nicolas,"10, rue Saint-Nicolas",,71400,03 85 54 21 60,www.museerolin.fr/node/132,46.955328,4.300179,7101403
M0162,Bourgogne-Franche-Comté,Saône-et-Loire,Autun,musée Verger-Tarin,"7, rue des Sous-Chambres",,71400,03 85 52 04 84,,46.949043,4.302971,7101401
M0164,Bourgogne-Franche-Comté,Saône-et-Loire,Bourbon-Lancy,musée Saint-Nazaire,place du Musée,ancienne église Saint-Nazaire,71140,03 85 89 09 40,www.tourisme-bourbonlancy.com/-fr/musee-saint-nazaire-33,46.624065,3.768545,7104701
M0169,Bourgogne-Franche-Comté,Saône-et-Loire,Cluny,musée d'art et d'archéologie,,Palais Jean de Bourbon,71250,03 85 59 12 79,www.cluny.fr/musee-d-art-et-d-archeologie,46.433938,4.658048,7113701
M0172,Bourgogne-Franche-Comté,Saône-et-Loire,Mâcon,musée des ursulines,"5, rue de la Préfecture",Ancien couvent des Ursulines,71000,03 85 39 90 38,www.macon.fr/vivre-et-bouger-a-macon/culture/musee-des-ursulines,46.307508,4.833156,7127001
M0174,Bourgogne-Franche-Comté,Saône-et-Loire,Marcigny,musée de la tour du moulin,Rue de la Tour du Moulin,,71110,03 85 25 37 05,www.marcigny.fr/musee-de-la-tour-du-moulin,46.274562,4.044451,7127501
M0176,Bourgogne-Franche-Comté,Saône-et-Loire,Paray-le-Monial,musée eucharistique du Hiéron,13 rue de la Paix,,71600,03 85 81 79 72,www.musee-hieron.fr/,46.451822,4.123021,7134201
M0178,Bourgogne-Franche-Comté,Saône-et-Loire,Romanèche-Thorins,musée Guillon du compagnonnage,98 rue Pierre-François Guillon,,71570,03 85 35 22 02,www.musee-compagnonnage71.fr/,46.187946,4.73427,7127201
M0182,Bourgogne-Franche-Comté,Saône-et-Loire,Tournus,musée bourguignon Perrin de Puycousin,"Hôtel-Dieu - musée Greuze, 21, rue de l'Hôpital",La maison du Trésorier,71700,03 85 51 29 68,,46.562137,4.910839,7154302
M0360,Bourgogne-Franche-Comté,Territoire-de-Belfort,Beaucourt,musée Frédéric Japy,16 rue Frédéric Japy,,90500,03 84 56 57 52,www.mairie-beaucourt.fr/culture/,47.485011,6.922453,9000901
M0362,Bourgogne-Franche-Comté,Territoire-de-Belfort,Etueffont,forge-musée,2 rue de Lamadeleine,,90170,03 84 54 60 41,www.etueffont.fr/decouvrir/patrimoine-historique.htm,47.722575,6.920842,9004101
M0361,Bourgogne-Franche-Comté,Territoire-de-Belfort,Belfort,musée d'art et d'histoire,Rue Xavier Bauer,Citadelle de Belfort,90000,03 84 54 25 51,musees.belfort.fr/musee-s-961.html,47.63757,6.867072,9001001
M1075,Bourgogne-Franche-Comté,Territoire-de-Belfort,Belfort,Cabinet d'un amateur - donation Maurice Jardot,8 rue de Mulhouse,,90000,03 84 54 25 51,musees.belfort.fr,47.642439,6.855466,9001002
M0190,Bourgogne-Franche-Comté,Yonne,Tonnerre,musée municipal,Rue du Prieuré,Centre hospitalier,89700,03 86 55 15 54/54 33 00,www.tonnerre-patrimoine.com/?s=mus%C3%A9e,47.8559,3.97555,8941801
M1189,Bourgogne-Franche-Comté,Yonne,Saint-Fargeau,musée de l'aventure du son,,,89170,,www.aventureduson.fr/,47.640663,3.070586,8934401
M7020,Bourgogne-Franche-Comté,Yonne,Auxerre,musée d'histoire naturelle,"5, boulevard Vauban",,89000,03 86 72 96 40,www.auxerre.fr/Attractive/Les-grands-equipements/Les-equipements-culturels/Museum,47.796936,3.564362,8902401
M0191,Bourgogne-Franche-Comté,Yonne,Vézelay,musée Zervos,Rue Saint-Étienne,Maison Romain-Rolland,89450,03 86 32 39 26,www.yonne.fr/Culture-et-Vie-Locale/Sites-et-monuments/Musee-Zervos,47.464133,3.74361,8944601
M0184,Bourgogne-Franche-Comté,Yonne,Auxerre,musée d'art et d'histoire Saint-Germain,"2 bis, place Saint-Germain",Abbaye Saint-Germain,89000,03 86 18 05 50,www.auxerre.fr/Attractive/Les-grands-equipements/Les-equipements-culturels/Musees,47.800283,3.571975,8902402
M0186,Bourgogne-Franche-Comté,Yonne,Avallon,musée de l'Avallonnais Jean Després,5 rue du Collège,Ancien collège,89200,03 86 34 03 19,ville-avallon.fr/musee-de-lavallonnais-jean-despres/,47.486968,3.906795,8902501
M0188,Bourgogne-Franche-Comté,Yonne,Saint-Sauveur-en-Puysance,musée Colette,,Château de Saint-Sauveur-en-Puisaye,89520,03 86 45 61 95,www.musee-colette.com/index.php,47.618015,3.197026,8936801
M0193,Bourgogne-Franche-Comté,Yonne,Villiers-Saint-Benoît,musée d'art et d'histoire de Puisaye,Rue Paul-Huillard,,89130,"03 86 45 73 05, 09 64 44 32 62",mahvillierssaintbeno.wixsite.com/musee?utm_source=OT_Puisaye_Forterre&utm_medium=OT_Puisaye_Forterre&utm_campaign=OT_Puisaye_Forterre,47.780142,3.20739,8947201
M0185,Bourgogne-Franche-Comté,Yonne,Auxerre,musée Leblanc-Duvernoy,"9 bis, rue d'Egleny",,89000,03 86 18 05 50,www.auxerre.fr/Attractive/Les-grands-equipements/Les-equipements-culturels/Musees,47.795393,3.566248,8902403
M0187,Bourgogne-Franche-Comté,Yonne,Noyers-sur-Serein,musée d'art naïf,25 rue de l'Eglise,,89310,03 86 82 89 09,noyers-et-tourisme.com/museenoyers.html,47.721479,3.966518,8927901
M0189,Bourgogne-Franche-Comté,Yonne,Sens,musée municipal,135 rue des Déportés et de la Résistance,,89100,03 86 64 46 22,www.musees-sens.fr/le-musee/,48.197828,3.284505,8938701
M0192,Bourgogne-Franche-Comté,Yonne,Villeneuve-sur-Yonne,musée villeneuvien,"4, rue Carnot",Musée-Galerie Carnot,89500,03 86 83 02 48,www.villeneuve-yonne.fr/culture-tourisme/expositions-musees/,48.080518,3.294126,8946401
M0196,Bretagne,Côtes-d'Armor,Saint-Brieuc,musée d'art et d'histoire,Cour Francis Renaud - Rue des lycéens martyrs,,22000,02 96 62 55 20,www.saint-brieuc.fr/ville-dynamique/equipements-culturels/musee-dart-et-dhistoire/,48.512139,-2.762171,2227801
M0194,Bretagne,Côtes-d'Armor,Dinan,musée de Dinan,,,22100,02 96 39 45 20,www.dinan.fr/161/musee-de-dinan,48.454713,-2.050808,2205001
M0195,Bretagne,Côtes-d'Armor,Lamballe,musée Mathurin Meheut,Place de Martray,,22404,02 96 31 19 99,www.musee-meheut.fr/fr/,48.4695316762448,-2.51580098821121,2209301
M0197,Bretagne,Finistère,Brest,musée des beaux-arts,24 rue Traverse,,29200,02 98 00 87 96,musee.brest.fr/musee-accueil-3171.html,48.38529,-4.489963,2901901
M1200,Bretagne,Finistère,Landévennec,musée de l'ancienne abbaye de Landévennec,Place Yann de Landévennec,,29560,02 98 27 35 90,www.musee-abbaye-landevennec.fr/,48.291351,-4.267455,2910401
M0200,Bretagne,Finistère,Douarnenez,port-musée,BP 174,place de l'Enfer,29177,02 98 92 65 20,www.port-musee.org/,48.0925345354225,-4.33264340171389,2904601
M0205,Bretagne,Finistère,Pont-Aven,musée,PLACE JULIA,,29930,02 98 06 14 43,www.museepontaven.fr/fr/,47.855497,-3.747155,2921701
M0206,Bretagne,Finistère,Pont-l'Abbée,musée bigouden,Square de l'Europe,Château,29120,02 98 66 09 09 (mairie),musee.ville-pontlabbe.bzh/,47.866452,-4.227768,2922001
M0207,Bretagne,Finistère,Quimper,musée des beaux-arts,"40, place Saint-Corentin",,29000,02 98 95 45 20,www.mbaq.fr/,47.996188,-4.101963,2923201
M0198,Bretagne,Finistère,Commana,écomusée des monts d'Arrée,Ecomusée des Monts d'Arrée,Moulins de Kérouat,29450,02 98 68 87 76,www.ecomusee-monts-arree.fr/,48.41588618665521,-4.006272428689588,
M0202,Bretagne,Finistère,Morlaix,musée des jacobins,place des Jacobins,,29600,02 98 88 07 75,musee.ville.morlaix.fr,48.577242,-3.825317,2915101
M0209,Bretagne,Finistère,Trégarvan,musée de l'école rurale en Bretagne,Kergroas,Musée de l'Ecole,29560,02 98 26 04 72,musee-ecole.fr/,48.244359,-4.225057,2928901
M0199,Bretagne,Finistère,Concarneau,musée de la pêche,3 rue Vauban,Ville Close,29900,02 98 97 10 20,www.musee-peche.fr/,47.872103,-3.915485,2903901
M0203,Bretagne,Finistère,Ouessant,écomusée d'Ouessant - Vivre sur une île,Village du Niou Huella,,29242,02 98 48 86 37,pnr-armorique.fr/destination-parc/nos-maisons-de-parc/ecomusee-douessant/,48.460549,-5.110775,2915501
M0208,Bretagne,Finistère,Quimper,musée départemental breton,1 rue du Roi Gradlon,Palais des Evêques,29000,02 98 95 21 60,musee-breton.finistere.fr/fr/,47.995125,-4.102602,2923202
M0204,Bretagne,Finistère,Ouessant,musée des phares et balises,Phare du Créac'h,,29242,02 98 48 80 70,www.pnr-armorique.fr/destination-parc/nos-maisons-de-parc/musee-des-phares-et-balises/,48.458998,-5.128812,2915502
M0212,Bretagne,Ille-et-Vilaine,Rennes,musée de Bretagne,10 cours des alliés,Les Champs Libres,35000,02 23 40 66 70,www.musee-bretagne.fr/,48.105455,-1.674922,3523801
M0215,Bretagne,Ille-et-Vilaine,Saint-Malo,musée du Long-Cours Cap-hornier,Tour Solidor,Château de Saint-Malo,35408,02 99 40 71 58,www.ville-saint-malo.fr/listes/le-musee-dhistoire-maritime-de-saint-malo/,48.6341981371223,-2.02590466916042,3528801
M0216,Bretagne,Ille-et-Vilaine,Vitré,musée du château,BP 70627,Place du Château,35506,02 99 75 04 54,www.mairie-vitre.com/Musees,48.1258845784386,-1.21179905098116,3536002
M0210,Bretagne,Ille-et-Vilaine,Montfort-sur-Meu,écomusée du pays de Monfort,Boulevard Villebois Mareuil,Mairie,35160,02 99 09 00 17,www.montfort-sur-meu.bzh/se-divertir/montfort-linattendue/architecture-et-patrimoine/,48.141088,-1.959973,3518801
M0211,Bretagne,Ille-et-Vilaine,Rennes,musée des beaux-arts,20 Quai Emile Zola,,35000,02 23 62 17 45,mba.rennes.fr,48.109837,-1.674981,3523802
M0213,Bretagne,Ille-et-Vilaine,Rennes,écomusée de la Bintinais,Chemin de La Bintinais,Le Blosne,35200,02 99 51 38 15,www.ecomusee-rennes-metropole.fr/,48.079557,-1.665571,3523803
M0214,Bretagne,Ille-et-Vilaine,Saint-Malo,musée d'histoire de la ville et d'ethnographie du pays malouin,Place Chateaubriand,Château de Saint-Malo,35400,02 99 40 71 16,www.ville-saint-malo.fr/listes/le-musee-dhistoire-maritime-de-saint-malo/,48.650738,-2.023727,3528802
M0218,Bretagne,Ille-et-Vilaine,Vitré,musée des rochers de Sévigné,Route D'argentré du Plessis,Château des Rochers-Sévigné,35500,02 99 75 04 54,www.mairie-vitre.com/Musees,48.080418,-1.169805,3536003
M0222,Bretagne,Morbihan,Groix,écomusée de l'île de Groix,,Port Tudy,56590,02 97 86 84 60,www.groix.fr/?mode=ecomusee-maison-kerlard,47.63992,-3.434074,5606901
M0227,Bretagne,Morbihan,Vannes,musée d'histoire et d'archéologie,2 rue Noé,Château-Gaillard,56000,02 97 01 63 00,www.mairie-vannes.fr/vannesloisirs/musees/musee-dhistoire-et-darcheologie/,47.656705,-2.757726,5626002
M0221,Bretagne,Morbihan,Carnac,musée de préhistoire Miln-le-Rouzic,10 place de la chapelle,,56340,02 97 52 22 04,www.museedecarnac.com/,47.584022,-3.0785,5603401
M0224,Bretagne,Morbihan,Port-Louis,musée de la Compagnie des Indes,"Citadelle, av. du Fort de l'Aigle",Citadelle de Port-Louis,56290,02 97 82 19 13,musee.lorient.bzh/,47.709147,-3.362581,5618102
M0228,Bretagne,Morbihan,Vannes,musée des beaux-arts,15 place Saint-Pierre,,56000,02 97 01 63 00,www.mairie-vannes.fr/vannesloisirs/musees/musee-des-beaux-arts-la-cohue/,47.657693,-2.757556,5626003
M1179,Bretagne,Morbihan,Le Faouët,musée du Faouët,1 rue de Quimper,,56320,02 97 23 15 27,www.museedufaouet.fr/,48.031817,-3.490833,5605701
M0225,Bretagne,Morbihan,Saint-Marcel,musée de la résistance bretonne,Les Hardys Béhelec,,56140,02 97 75 16 90,www.resistance-bretonne.com/,47.800618,-2.432273,5622801
M1195,Bretagne,Morbihan,Baud,musée de la carte postale,3 Avenue Jean Moulin,Le Quatro,56150,02 97 51 15 14,www.lecartonvoyageur.fr/,47.875046,-3.016911,5601001
M0220,Bretagne,Morbihan,Brec'h,écomusée de Saint-Degan,Rue Park Segal,,56400,02 97 57 66 00,www.ecomusee-st-degan.fr/,47.70843,-2.993063,5602301
M0223,Bretagne,Morbihan,Inzinzac-Lochrist,écomusée industriel des forges,Mail François Giovannelli,,56650,02 97 36 98 21,www.inzinzac-lochrist.fr/Ecomusee-des-Forges.6681.0.html,47.824974,-3.25232,5609001
M0231,Centre-Val de Loire,Cher,Bourges,musée Estève,"13, rue Edouard Branly",Hôtel des Echevins,18000,02 48 24 75 38,www.bourges.fr/site/musee-esteve,47.085951,2.396195,1803301
M0230,Centre-Val de Loire,Cher,Bourges,musée du Berry,"4-6, rue des Arènes",Hôtel Cujas,18000,02 48 57 81 15 ou 02 48 70 41 92,www.bourges.fr/site/musee-berry,47.083735,2.39325,1803303
M0233,Centre-Val de Loire,Cher,Châteaumeillant,musée Emile Chenon,10-12 rue de la Victoire,,18370,02 48 61 39 89,museechenon.e-monsite.com/,46.5614,2.196543,1805701
M0234,Centre-Val de Loire,Cher,Mehun-sur-Yèvre,musée du château Charles VII,place Jean-Manceau,Château Jean de Berry,18500,02 48 57 06 19,www.ville-mehun-sur-yevre.fr/tourisme/cite-medievale/le-musee-charles-vii,47.145214,2.21738,1814101
M0229,Centre-Val de Loire,Cher,Bourges,musée des arts décoratifs,"5, rue de l'hôtel Lallemant",Hôtel Lallemant,18000,02 48 70 23 57,www.bourges.fr/site/musee-arts-decoratifs,47.084683,2.398383,1803302
M0232,Centre-Val de Loire,Cher,Bourges,musée des meilleurs ouvriers de France,Hôtel de Ville - place Etienne Dolet,Ancien Archevêché,18000,02 48 57 82 45,www.bourges.fr/site/musee-meilleurs-ouvriers-france,47.081774,2.398494,1803306
M0236,Centre-Val de Loire,Cher,Vierzon,musée municipal,11 rue de la Société Française,,18100,02 48 71 10 94,www.ville-vierzon.fr/musee.html,47.225192,2.060639,1827901
M7028,Centre-Val de Loire,Cher,Bourges,muséum d'histoire naturelle Gabriel Foucher,Les Rives d'Auron,,18000,02 48 65 37 34,www.museum-bourges.net/,47.081055,2.392284,1803305
M0235,Centre-Val de Loire,Cher,Saint-Amand-Montrond,musée Saint-Vic,Cours Manuel,,18200,02 48 96 55 20,www.ville-saint-amand-montrond.fr/le-musee-saint-vic-f-70.html,46.720657,2.506654,1819701
M0237,Centre-Val de Loire,Eure-et-Loir,Bonneval,musée bonnevallais,rue saint roch,,28800,02 37 47 21 93,,48.181517,1.385475,2805101
M0238,Centre-Val de Loire,Eure-et-Loir,Chartres,musée des beaux-arts,29 Cloître Notre-Dame,,28000,02 37 90 45 80,www.chartres.fr/patrimoine-historique/le-musee-des-beaux-arts/,48.447624,1.486763,2808503
M7030,Centre-Val de Loire,Eure-et-Loir,Chartres,muséum des sciences naturelles et de préhistoire,"5bis, bvd de la Courtille",,28000,02 37 23 40 00,,48.441822,1.490983,2808502
M0242,Centre-Val de Loire,Eure-et-Loir,Illiers-Combray,musée Marcel Proust,Place Lemoine,,28120,02 37 24 30 97,www.amisdeproust.fr/fr/musee,48.299696,1.243114,2819601
M0243,Centre-Val de Loire,Eure-et-Loir,Nogent-le-Rotrou,musée de l'histoire du Perche,Place Emile Maquaire,Château des comtes du Perche,28400,02 37 52 18 02,www.ville-nogentlerotrou.fr/culture/le-chateau-des-comtes-du-perche/,48.324867,0.804249,2828001
M0239,Centre-Val de Loire,Eure-et-Loir,Chartres-Mainvilliers,conservatoire du machinisme et des pratiques agricoles,Pont de Mainvilliers,Rotonde SNCF,28000,02 37 84 15 00,/www.lecompa.fr/,48.4469028609768,1.47687484194235,2808504
M0240,Centre-Val de Loire,Eure-et-Loir,Châteaudun,musée des beaux-arts et d'histoire naturelle,"3, rue Toufaire",,28200,02 37 45 55 36,musee-chateaudun.fr/le-musee/,48.070792,1.327905,2808801
M0241,Centre-Val de Loire,Eure-et-Loir,Dreux,musée d'art et d'histoire de Dreux,"5-7, place du musée",,28100,02 37 50 18 61,www.dreux.com/le-musee,48.733472,1.368066,2813401
M0244,Centre-Val de Loire,Eure-et-Loir,Sainville,musée Farcot,place du Carrefour,,28700,02 37 24 60 06,www.coeurdebeauce.fr/le-musee-eugene-farcot/,48.415867,1.87924,2836301
M0246,Centre-Val de Loire,Indre,Azay-le-Ferron,château musée,31-33 rue Hersent-Luzarche,,36290,02 54 39 20 06,www.chateau-azay-le-ferron.com/fr/,46.851361,1.069524,3601001
M7069,Centre-Val de Loire,Indre,Langé,musée de géologie régionale,,,36600,02 54 00 04 42,,47.073893,1.513405,3609201
M0248,Centre-Val de Loire,Indre,Issoudun,musée de l'hospice Saint Roch,rue de l'Hospice Saint-Roch,,36100,02 54 21 01 76,www.museeissoudun.tv/,46.945408,1.994379,3608801
M0251,Centre-Val de Loire,Indre,Le Blanc,musée ornithologique,Place du Champ de Foire,Château Naillac,36300,02 54 37 25 20,www.parc-naturel-brenne.fr/visitez/les-incontournables/ecomusee-de-la-brenne,46.627962,1.062835,3601801
M0252,Centre-Val de Loire,Indre,Saint-Marcel,musée archéologique d'Argentomagus,Les Mersans,,36200,02 54 24 47 31,www.argentomagus.fr/,46.600503,1.515379,3620001
M0245,Centre-Val de Loire,Indre,Argenton-sur-Creuse,musée de la chemiserie et de l'élégance masculine,rue Charles Brillaud,,36200,02 54 24 34 69,www.museedelachemiserie.fr/,46.58847,1.518517,3600601
M0247,Centre-Val de Loire,Indre,Châteauroux,musée Bertrand,2 rue Descente-des-Cordeliers,,36000,02 54 61 12 30,www.chateauroux-metropole.fr/culture/musees-232.html,46.813737,1.694262,3604401
M0250,Centre-Val de Loire,Indre,La Châtre,musée George Sand et de la vallée noire,Square George Sand,Hôtel de Villaines,36400,02 54 48 36 79,www.museegeorgesand.fr,46.581939,1.989964,3604601
M0253,Centre-Val de Loire,Indre-et-Loire,Amboise,musée Hôtel Morin,,mairie,37400,02 47 23 47 23,www.ville-amboise.fr/97/musee-hotel-morin.htm,47.410737,0.981446,3700301
M0257,Centre-Val de Loire,Indre-et-Loire,Descartes,musée Descartes,"29, rue Descartes",,37160,02 47 59 79 19,museedescartes.wixsite.com/museedescartes,46.972623,0.699988,3711501
M0266,Centre-Val de Loire,Indre-et-Loire,Tours,musée du compagnonnage,"8, rue Nationale",Cloître Saint-Julien,37000,02 47 21 62 20,www.museecompagnonnage.fr/,47.39627,0.686457,3726105
M0268,Centre-Val de Loire,Indre-et-Loire,Tours,musée archéologique de l'hôtel Goüin,"25, rue du Commerce",Hôtel Gouin,37000,02 47 31 43 27,www.societearcheotouraine.eu/168/collections/musee-de-l-hotel-gouin,47.395094,0.684809,3726103
M0259,Centre-Val de Loire,Indre-et-Loire,Le Grand Pressigny,musée départemental de préhistoire,Château,Au château,37350,02 47 94 90 20,www.prehistoiregrandpressigny.fr/,46.921003,0.800711,3711301
M0263,Centre-Val de Loire,Indre-et-Loire,Sainte-Maure-de-Touraine,musée municipal,rue du Château,,37800,02 47 65 66 20,www.sainte-maure-de-touraine.fr/editorial.php?id=130,47.111569,0.619769,3722601
M0265,Centre-Val de Loire,Indre-et-Loire,Tours,musée des beaux-arts,18 place François Sicard,,37000,02 47 05 68 73,mba.tours.fr,47.394698,0.694004,3726102
M0254,Centre-Val de Loire,Indre-et-Loire,Amboise,musée de la poste,40 rue de la Concorde,,37400,02 47 23 47 42,www.ville-amboise.fr/58-719/fiche/noel-blanc-le-musee-de-la-poste-se-devoile.htm,47.413925,0.985929,3700302
M0255,Centre-Val de Loire,Indre-et-Loire,Chinon,"Le Carroi, musée d'arts et d'histoire","44, rue Haute-Saint-Maurice",Maison des Etats généraux,37500,02 47 93 18 12,www.chinon-vienne-loire.fr/culture/musee-le-carroi/presentation-du-musee/,47.167125,0.23767,3707201
M0262,Centre-Val de Loire,Indre-et-Loire,Saché,musée Balzac,rue du château,Château de Saché,37190,02 47 26 86 50,www.lysdanslavallee.fr/fr/contenu/musee-balzac,47.245703,0.544078,3720501
M0269,Centre-Val de Loire,Indre-et-Loire,Yzeures-sur-Creuse,musée de Minerve,place du Musée,,37290,02 47 94 55 01,,46.785983,0.869839,3728201
M7062,Centre-Val de Loire,Indre-et-Loire,Tours,muséum d'histoire naturelle,"3, rue du Président-Merville",,37000,02 47 21 66 08,www.museum.tours.fr/,47.394637,0.68388,3726101
M0261,Centre-Val de Loire,Indre-et-Loire,Richelieu,musée municipal,place du Marché,mairie,37120,02 47 58 10 13,www.ville-richelieu.fr/culture-tourisme-patrimoine/musee-et-espace-richelieu/,47.011912,0.324353,3719601
M1088,Centre-Val de Loire,Indre-et-Loire,Savigny-en-Véron,écomusée du Véron,80 route de Candes,,37420,02 47 58 09 05,www.ecomusee-veron.fr/,47.209697,0.124427,3724201
M0260,Centre-Val de Loire,Indre-et-Loire,Loches,musée Lansyer,"1, rue Lansyer",,37600,33 02 47 59 05 45,museelansyer-loches.fr/,47.126829,0.997457,3713201
M0264,Centre-Val de Loire,Indre-et-Loire,Seuilly,musée Rabelais,3 La Devinière,La Devinière,37500,02 47 95 91 18,www.musee-rabelais.fr/,47.140806,0.179096,3724801
M0267,Centre-Val de Loire,Indre-et-Loire,Tours,musée du vin de Touraine,"16, rue Nationale",Celliers Saint-Julien,37000,02 47 61 07 93,,47.393692,0.687373,3726104
M1133,Centre-Val de Loire,Indre-et-Loire,Savigné-sur-Lathan,musée du Savignéen,10 rue du faubourg de la Rue,,37340,02 47 24 95 14,museedusavigneen.fr/,47.445748,0.319748,3724101
M1183,Centre-Val de Loire,Indre-et-Loire,Loches,musée du terroir,,,37600,,www.ville-loches.fr/conservation-des-collections-de-la-ville-article-3-11-90.html,47.128196,0.994671,3713202
M0286,Centre-Val de Loire,Loiret,Orléans,musée des beaux-arts,Place Sainte-Croix,,45000,02 38 79 21 55,www.orleans-metropole.fr/culture/musees-expositions/le-musee-des-beaux-arts,47.901573,1.90861,4523403
M0287,Centre-Val de Loire,Loiret,Orléans,"hôtel Cabu, musée d'histoire et d'archéologie",Square Abbé Desnoyers,Hôtel Cabu,45000,02 38 79 25 60,www.orleans-metropole.fr/culture/musees-expositions/hotel-cabu-musee-dhistoire-et-darcheologie,47.900952,1.905193,4523402
M0289,Centre-Val de Loire,Loiret,Pithiviers,musée municipal,"17, rue de la Couronne",,45300,02 38 30 00 64,,48.172521,2.255004,4525201
M7053,Centre-Val de Loire,Loiret,Orléans,muséum d'Orléans pour la biodiversité et l'environnement,2 rue Marcel Proust,,45000,02 38 54 61 05,www.orleans-metropole.fr/culture/musees-expositions/museum-dorleans-pour-la-biodiversite-et-lenvironnement,47.907734,1.909578,4523401
M0278,Centre-Val de Loire,Loiret,Artenay,musée municipal théâtre forain et archéologique,Quartier du Paradis,Ferme du Paradis,45410,02 38 80 09 73,www.ville-artenay.fr/decouvrir-artenay/lieux-culturels/le-musee-du-theatre-forain/,48.082089,1.879609,4500802
M0281,Centre-Val de Loire,Loiret,Chatillon-Coligny,musée d'art et d'archéologie,2 faubourg du Puyrault,Ancien Hôtel-Dieu,45230,02 38 92 50 11,www.chatillon-coligny.fr/musee.html,47.820625,2.844906,4508501
M0283,Centre-Val de Loire,Loiret,Meung-sur-Loire,musée Gaston Couté,22 rue des Remparts,Espace culturel La Monnaye,45130,02.38.22.53.36,www.meung-sur-loire.com/culture/402-musee.html?search_query=musee&results=5,47.825556,1.694889,4520301
M0279,Centre-Val de Loire,Loiret,Beaugency,musée Daniel Vannier,"2, place Dunois",Château Dunois,45190,02 38 44 55 23,www.beaugency.fr/decouvrir-beaugency/la-ville-2/au-fil-des-monuments/le-chateau/,47.777611,1.633585,4502801
M0280,Centre-Val de Loire,Loiret,Châteauneuf-sur-Loire,musée de la marine de Loire,1 place Aristide Briand,Ecuries du Château,45110,02 38 46 84 46,www.musee-marinedeloire.fr/,47.865212,2.219187,4508201
M0284,Centre-Val de Loire,Loiret,Montargis,musée Girodet,2 rue du Faubourg de la Chaussée,Hôtel Durzy,45200,02 38 98 07 81,www.musee-girodet.fr/,47.997528,2.737205,4520802
M0285,Centre-Val de Loire,Loiret,Montargis,musée du Gâtinais,"7, rue du Château",,45200,02 38 93 45 63,,47.998314,2.729233,4520801
M0282,Centre-Val de Loire,Loiret,Gien,"château-musée de Gien : chasse, histoire et nature en Val de Loire",Esplanade du Château,Château,45500,02 38 67 69 69,www.chateaumuseegien.fr/,47.68592,2.630092,4515501
M1083,Centre-Val de Loire,Loir-et-Cher,Blois,maison de la magie,"1 bis, place du Château",,41000,02 54 90 33 33,www.maisondelamagie.fr/,47.586566,1.332917,4101804
M0275,Centre-Val de Loire,Loir-et-Cher,Romorantin-Lathenay,musée de Sologne,,Moulin du Chapïtre,41206,02 54 95 33 66,www.museedesologne.com/,47.3573233628867,1.74368826704588,4119401
M0276,Centre-Val de Loire,Loir-et-Cher,Thésée,musée archéologique,Parc du Vaulx Saint-Georges,la Mairie,41140,02 54 71 00 88,www.communedethesee.com/commune/,47.3284903864584,1.30655505540413,4125801
M0273,Centre-Val de Loire,Loir-et-Cher,Mer,musée de la Corbillière,Parc de la Corbillière,Gentilhommière de la Corbillière,41500,02 54 81 70 21,www.mer41.fr/La-Corbilliere-279,47.697723,1.503586,4113601
M0277,Centre-Val de Loire,Loir-et-Cher,Vendôme,musée municipal,,Cloître de la Trinité,41100,02 54 89 44 50,www.vendome.eu/le-musee,47.792111,1.064507,4126901
M0274,Centre-Val de Loire,Loir-et-Cher,Naveil,atelier musée Louis Leygue,rue des Venages,,41100,02 54 77 26 13,,47.795395,1.04019,4115801
M7024,Centre-Val de Loire,Loir-et-Cher,Blois,muséum d'histoire naturelle,rue Anne de Bretagne,Les Jacobins,41000,02 54 90 21 00,www.blois.fr/attractive/remarquable/museum,47.585122,1.33302,4101805
M0271,Centre-Val de Loire,Loir-et-Cher,Blois,château musées,6 place du château,Château de Blois,41000,02 54 90 33 33,www.chateaudeblois.fr/2120-le-musee.htm,47.585598,1.331665,4101801
M0325,Corse,Corse du Sud,Ajaccio,musée napoléonien,,,20000,,,41.92499,8.735937,2A00401
M0324,Corse,Corse du Sud,Ajaccio,musée palais Fesch,"50-52, rue Cardinal Fesch",palais,20000,04 95 26 26 26,www.musee-fesch.com/,41.922406,8.738487,2A00403
M0326,Corse,Corse du Sud,Lévie,musée de l'Alta-Rocca,Quartier Prato,,20170,04 95 78 46 34 / 47 98,www.corsedusud.fr/nos-competences/patrimoine-et-culture/musee-departemental-de-laltarocca/,41.704223,9.125161,2A14201
M5046,Corse,Corse du Sud,Ajaccio,musée national de la maison Bonaparte,Rue saint Charles,Rue Saint-Charles,20000,04 95 21 43 89,musees-nationaux-malmaison.fr/musee-maisonbonaparte/,41.917701,8.73795,2A00402
M0327,Corse,Corse du Sud,Sartène,musée de préhistoire corse,Bd Jacques NICOLAI,Ancienne Maison d'Arrêt,20100,04 95 77 01 09,www.isula.corsica/patrimoine/Musee-de-Sartene_a71.html,41.620485,8.973941,2A27201
M0328,Corse,Haute-Corse,Aléria,musée Jérôme Carcopino,,Fort de Matra,20270,04 95 57 00 92,www.haute-corse.fr/site/index.php?page=musee-archeologie-aleria,42.113417,9.512108,2B00901
M0331,Corse,Haute-Corse,Morosaglia,musée Pascal Paoli,,Hameau de Stretta,20261,04 95 61 04 97,www.haute-corse.fr/site/index.php?page=musee-pascal-paoli,42.4378881569962,9.30935382387544,2B16901
M0330,Corse,Haute-Corse,Corte,musée de la Corse,La Citadelle,,20250,04 95 45 25 45,www.musee-corse.com/index.php/fre/Accueil,42.307888,9.14766,2B09601
M1184,Corse,Haute-Corse,Lucciana,musée archéologique de Mariana - Prince Rainier III de Monaco,1045 Corsu Lucciana,CS30026,20290,04 95 30 14 30,www.musee-mariana.com/,42.542773,9.442618,2B14801
M0329,Corse,Haute-Corse,Bastia,musée d'ethnographie corse,La Citadelle,Palais des Gouverneurs Gênois,20200,04 95 31 09 12,musee.bastia.corsica/fr/accueil-885.html,42.693145,9.450578,2B03301
M0290,Grand Est,Ardennes,Bazeilles,musée de la maison de la dernière cartouche,12 Avenue de la Dernière Cartouche,,08140,03 24 27 15 86,www.maisondeladernierecartouche.com/index.php?lang=fr,49.681745,4.975035,0805301
M0291,Grand Est,Ardennes,Charleville-Mezières,musée Arthur Rimbaud,Quai Arthur Rimbaud,Vieux-Moulin,08000,03 24 32 44 65,www.charleville-mezieres.fr/musee-rimbaud,49.776034,4.720613,0810501
M0296,Grand Est,Ardennes,Sedan,musée du château-fort,Château fort,Château,08200,03 24 29 98 80,musee-municipal-sedan.over-blog.com/a-propos-du-musee.html,49.695347,4.919074,0840901
M0292,Grand Est,Ardennes,Charleville-Mezières,musée de l'Ardenne,31 place Ducale,,08000,03 24 32 44 60,www.charleville-mezieres.fr/le-musee-de-lardenne-1,49.773836,4.721238,0810503
M0293,Grand Est,Ardennes,Givet,musée,s'adresser à la mairie,,08600,,,50.1365822914299,4.82452731306089,0819001
M0295,Grand Est,Ardennes,Rethel,musée du Rethelois et du Porcien,,,08300,03 52 10 01 00,,49.509328,4.366447,0836201
M0294,Grand Est,Ardennes,Mouzon,musée du feutre,Place du Colombier,Mairie,08210,03 24 26 10 63,www.mouzon.fr/presentation-du-musee.html,49.605919,5.074601,0831101
M0297,Grand Est,Aube,Bar-sur-Aube,musée municipal,Place Carnot,s'adresser à la mairie,10200,,,48.233206,4.705996,1003301
M0300,Grand Est,Aube,Mussy-sur-Seine,musée de la Résistance de l'Aube,6 Rue Boursault,,10250,03 25 38 42 08,www.tourisme-cotedesbar.com/poi/musee-de-la-resistance-de-l-aube/,47.977352,4.498923,1026101
M0301,Grand Est,Aube,Nogent-sur-Seine,musée Camille Claudel,10 rue Gustave Flaubert,,10400,03 25 24 76 34,www.museecamilleclaudel.fr/fr,48.494242,3.500892,1026801
M0303,Grand Est,Aube,Troyes,musée des beaux-arts et d'archéologie,Rue Chrestien de Troyes,Abbaye Saint-Loup,10000,03 25 42 20 09,www.musees-troyes.com,48.300638,4.08003,1038704
M0306,Grand Est,Aube,Troyes,maison de l'outil et de la pensée ouvrière,7 rue de La Trinité,Hôtel de Mauroy,10000,03 25 73 28 26,mopo3.com/,48.29473,4.072849,1038705
M0299,Grand Est,Aube,Brienne-le-Château,musée Napoléon 1er,"34, rue de l'Ecole Militaire",,10500,03 25 92 82 41,www.musee-napoleon-brienne.fr/lhistoire-du-musee,48.388915,4.528446,1006401
M0302,Grand Est,Aube,Troyes,musée d'art moderne,14 Place Saint-Pierre,Ancien Evêché,10000,03 25 76 26 81,www.musees-troyes.com/art-moderne/,48.299643,4.080736,1038706
M0305,Grand Est,Aube,Troyes,pharmacie musée de l'hôtel-Dieu,31 Quai des Comtes de Champagne,,10000,03 25 80 98 97,www.musees-troyes.com/apothicairerie/,48.298985,4.078036,1038707
M7073,Grand Est,Aube,Troyes,muséum d'histoire naturelle,1 Rue Chrestien de Troyes,Abbaye Saint Loup,10000,03 25 42 20 09,www.musees-troyes.com/museum/,48.300638,4.08003,1038701
M0304,Grand Est,Aube,Troyes,musée historique de Troyes et de la Champagne,4 rue de Vauluisant,Hôtel de Vauluisant,10000,03 25 43 43 20,www.musees-troyes.com/art-champenois/,48.294239,4.071824,1038702
M0010,Grand Est,Bas-Rhin,Pfaffenhoffen,musée de l'image populaire,"24, rue du Docteur Albert Schweitzer",,67350,03 88 07 80 05,www.commune-valdemoder.fr/culture-loisirs/musee-de-l-image-populaire,48.844834,7.611365,6737201
M0011,Grand Est,Bas-Rhin,Reichshoffen,musée historique et industriel - musée du fer,"9, rue Jeanne d'Arc",,67110,03 88 80 34 49 / 03 88 80 89 30,www.reichshoffen.fr/Le-Musee-Historique-et-Industriel.html,48.932234,7.664814,6738801
M0014,Grand Est,Bas-Rhin,Strasbourg,musée alsacien,"23, quai Saint-Nicolas",,67000,03 88 52 50 01,www.musees.strasbourg.eu/musee-alsacien,48.579075,7.750484,6748208
M0016,Grand Est,Bas-Rhin,Strasbourg,musée d'art moderne et contemporain de Strasbourg,"1, place Hans Jean Arp",,67000,03 86 98 51 55,www.musees.strasbourg.eu/musee-d-art-moderne-et-contemporain,48.579654,7.736231,6748209
M0018,Grand Est,Bas-Rhin,Strasbourg,musée des arts décoratifs,"2, place du Château",Palais Rohan,67000,03 88 52 50 08,www.musees.strasbourg.eu/musee-des-arts-decoratifs,48.581229,7.751984,6748204
M0020,Grand Est,Bas-Rhin,Strasbourg,musée historique,"2, rue du Vieux Marché aux Poissons",Musée historique,67000,03 68 98 50 00,www.musees.strasbourg.eu/musee-historique,48.580579,7.749714,6748207
M0022,Grand Est,Bas-Rhin,Wissembourg,musée Westercamp,"1-3, rue du Musée",,67160,03 88 54 28 14,webmuseo.com/ws/musee-wissembourg/app/report/index.html,49.038815,7.944344,6754401
M0023,Grand Est,Bas-Rhin,Woerth,musée de la bataille du 6 août 1870,2 rue du Moulin,Château-Mairie de Woerth,67360,03 88 09 30 21,webmuseo.com/ws/musee-woerth/app/report/index.html,48.938618,7.747992,6755001
M0005,Grand Est,Bas-Rhin,Haguenau,musée historique,"9, rue du Maréchal Foch",,67500,03 88 90 29 39,www.ville-haguenau.fr/musee-historique,48.812831,7.791481,6718001
M0012,Grand Est,Bas-Rhin,Saverne,musée du château des Rohan,Place du Général de Gaulle,Château des Rohan,67700,03 88 71 63 95,www.saverne.fr/sport-culture/offre-culturelle/musee-de-saverne/,48.741958,7.362787,6743701
M0019,Grand Est,Bas-Rhin,Strasbourg,musée des beaux-arts,"2, place du Château",Palais Rohan,67000,03 68 98 51 60,www.musees.strasbourg.eu/musee-des-beaux-arts,48.581229,7.751984,6748203
M0021,Grand Est,Bas-Rhin,Waldersbach,musée Oberlin,"25, montée Oberlin",,67130,03 88 97 30 27,musee-oberlin.org/fr/accueil/,48.414759,7.214925,6751301
M0002,Grand Est,Bas-Rhin,Betschdorf,musée de la poterie,2 rue de Kuhlendorf,,67660,03 88 54 48 07,www.betschdorf.com/vie-culturelle-et-associative/musee-de-la-poterie,48.900348,7.914409,6733901
M0004,Grand Est,Bas-Rhin,Haguenau,musée alsacien,"1, place Joseph Thierry",,67500,03 88 06 59 99,www.ville-haguenau.fr/musee-alsacien,48.814611,7.789527,6718002
M0006,Grand Est,Bas-Rhin,Molsheim,musée de la chartreuse,"4, cour des Chartreux",,67120,03 88 38 10 95,www.chartreuse-molsheim.info,48.54278,7.49023,6730001
M0008,Grand Est,Bas-Rhin,Niederbronn-les-Bains,maison de l'archéologie des Vosges du Nord,"44, avenue Foch",,67110,03 88 80 36 37,www.niederbronn-les-bains.fr/culture-et-loisirs/maison-de-l-archeologie.html,48.947444,7.650428,6732401
M0015,Grand Est,Bas-Rhin,Strasbourg,musée archéologique,2 place du Château,"Palais Rohan, Strasbourg Cedex",67000,03 68 98 74 90,www.musees.strasbourg.eu/musee-archeologique,48.581229,7.751984,6748202
M1162,Grand Est,Bas-Rhin,Wingen-sur-Moder,musée Lalique,"40, rue du Hochberg",,67290,03 88 89 08 14,www.musee-lalique.com,48.927033,7.361922,6753801
M0003,Grand Est,Bas-Rhin,Bouxwiller,musée du pays de Hanau - histoire et vies d'un territoire,3 place du Château,HALLE AUX BLES,67330,03 88 00 38 39,www.museedupaysdehanau.eu,48.824977,7.482915,6706101
M0013,Grand Est,Bas-Rhin,Strasbourg,cabinet des estampes et des dessins,"5, place du Château",,67076,03 68 98 74 96,www.musees.strasbourg.eu/cabinet-des-estampes-et-des-dessins,48.5812366410149,7.75054432713545,6748205
M0017,Grand Est,Bas-Rhin,Strasbourg,musée de l'Œuvre Notre-Dame,"3, place du Château",,67076,03 68 98 61 50,www.musees.strasbourg.eu/musee-de-l-oeuvre-notre-dame,48.58097,7.75151,6748206
M0001,Grand Est,Bas-Rhin,Barr,musée de la Folie Marco,"30, rue du docteur Sultzer",,67140,03 88 08 94 72,www.musee-foliemarco.com,48.410166,7.451102,6702101
M1098,Grand Est,Bas-Rhin,Strasbourg,musée Tomi Ungerer,"2, avenue de la Marseillaise",Villa Greiner,67000,03 68 98 51 53,www.musees.strasbourg.eu/musee-tomi-ungerer,48.585747,7.755028,6748213
M7071,Grand Est,Bas-Rhin,Strasbourg,musée zoologique de l'université Louis Pasteur et de la ville de Strasbourg,29 Boulevard de la Victoire,,67000,03 68 85 04 85,www.musees.strasbourg.eu/musee-zoologique,48.582707,7.764645,6748210
M0320,Grand Est,Haute-Marne,Langres,Maison des Lumières Denis Diderot,1 place Pierre Burelle,,52200,03 25 86 86 86,www.musees-langres.fr/maison-des-lumieres-denis-diderot/,47.866417,5.331753,5226901
M0318,Grand Est,Haute-Marne,Chaumont,musée de l'affiche,1 Place Emile Goguenheim,Ancienne Banque de France,52000,03 25 35 79 01,www.centrenationaldugraphisme.fr/le-signe,48.110756,5.135234,5212102
M0319,Grand Est,Haute-Marne,Chaumont,musée des beaux-arts et d'archéologie,place du Palais,,52000,03 25 03 01 99,"www.tourisme-chaumont-champagne.com/patrimoine-culturel/musee-d-art-et-d-histoire-de-chaumont,fr,16,pcu15",48.112482,5.137331,5212101
M0317,Grand Est,Haute-Marne,Bourbonne-les-Bains,musée municipal,Parc du château,,52400,03.25.90.69.47,bourbonne.com/detente/culture/,47.942274,5.732204,5206001
M0321,Grand Est,Haute-Marne,Langres,musée d'art et d'histoire,Place du centenaire,,52200,03 25 86 86 86,www.musees-langres.fr/,47.865268,5.333286,5226902
M0322,Grand Est,Haute-Marne,Nogent-en-Bassigny,musée de la coutellerie,Place Charles de Gaulle,,52800,03 25 31 89 21,www.villedenogent52.fr/page/culture/musee/,48.02758,5.341424,5235301
M0323,Grand Est,Haute-Marne,Saint-Dizier,musée municipal,17 rue de la Victoire,,52115,03 25 07 31 50,www.saint-dizier.fr/sport-culture-loisirs/culture-et-musique/musee-de-saint-dizier.html,48.638041229332,4.94827773339682,5244801
M0027,Grand Est,Haut-Rhin,Colmar,musée Bartholdi,"30, rue des Marchands",,68000,03 89 41 90 60,www.musee-bartholdi.fr/,48.076747,7.357746,6806603
M0028,Grand Est,Haut-Rhin,Colmar,musée d'Unterlinden,Place Unterlinden,,68000,03 89 20 15 50,www.musee-unterlinden.com/,48.079918,7.355464,6806601
M0037,Grand Est,Haut-Rhin,Mulhouse,musée de l'impression sur étoffes,"14, rue Jean-Jacques Henner",,68072,03 89 46 83 00,www.musee-impression.com/,47.7450194241996,7.34537958054864,6822402
M0040,Grand Est,Haut-Rhin,Neuf-Brisach,musée Vauban,Porte de Belfort,,68600,03 89 72 03 93,mausa.fr/,48.016144,7.525674,6823101
M0048,Grand Est,Haut-Rhin,Ungersheim,écomusée d'Alsace,BP 71,,68190,03 89 74 44 74,www.ecomusee.alsace/fr/,47.878584,7.304447,6834301
M0034,Grand Est,Haut-Rhin,Mulhouse,musée historique,Place de la Réunion,,68100,03 89 33 78 17,musees-mulhouse.fr/musees/musee-historique/,47.746642,7.338434,6822408
M0041,Grand Est,Haut-Rhin,Oltingue,musée paysan,10 rue Principale,,68480,03 89 40 79 24,musee.paysan.free.fr/,47.492827,7.391275,6824801
M0043,Grand Est,Haut-Rhin,Riquewihr,musée du Dolder,"57, rue du Général-de-Gaulle",,68340,03 89 58 44 08,www.musee-riquewihr.fr/dolder.html,48.166916,7.297406,6827702
M0031,Grand Est,Haut-Rhin,Kaysersberg,musée historique,"64, rue du général de Gaulle",,68240,03 89 78 11 11,www.kaysersberg-vignoble.fr/musee-historique,48.139072,7.261441,6816201
M0036,Grand Est,Haut-Rhin,Mulhouse,musée français du chemin de fer,"2, rue Alfred de Glehn",,68200,03 89 42 83 33 / 25 67,www.citedutrain.com/,47.732372,7.312824,6822405
M0039,Grand Est,Haut-Rhin,Mulhouse,musée Electropolis,55 rue du Pâturage,,68200,03 89 32 48 50,www.musee-electropolis.fr/,47.749441,7.295058,6822404
M7033,Grand Est,Haut-Rhin,Colmar,muséum d'histoire naturelle et d'ethnographie,"11, rue Turenne",,68000,03 89 23 84 15,www.colmar.fr/musee-histoire-naturelle,48.073594,7.35872,6806602
M0025,Grand Est,Haut-Rhin,Biesheim,musée gallo-romain,Place de la Mairie,Le Capitole,68600,03 89 72 01 58,www.biesheim.fr/culture-loisirs/musee-gallo-romain/,48.041667,7.54802,6803601
M0026,Grand Est,Haut-Rhin,Cernay,musée de la porte de Thann,rue de Thann,,68700,03 89 75 54 10 (mairie),www.musee-cernay.org/,47.809586,7.174264,6806301
M0029,Grand Est,Haut-Rhin,Guebwiller,musée Théodore Deck et des pays du Florival,"1, rue du quatre février",Maison canoniale dite « Le Doyenné »,68500,03 89 74 22 89,www.ville-guebwiller.fr/culture/lieux-culturels/musee-theodore-deck-des-pays-du-florival/,47.905522,7.214504,6811201
M0030,Grand Est,Haut-Rhin,Huningue,musée historique et militaire,"6, rue des Boulangers",,68330,03 89 69 17 80,www.ville-huningue.fr/fr/musee-historique-et-militaire/,47.591513,7.584985,6814901
M0033,Grand Est,Haut-Rhin,Mulhouse,musée des beaux-arts,4 place Guillaume Tell,Maison Steinbach,68100,03 89 33 78 11,musees-mulhouse.fr/musees/musee-des-beaux-arts/,47.745774,7.338271,6822401
M0035,Grand Est,Haut-Rhin,Mulhouse,musée national de l'automobile - collection Schlumpf,"192, avenue de Colmar - BP 1096",,68051,03 89 33 23 23,www.citedelautomobile.com/,47.7616141670104,7.32789352526163,6822403
M0038,Grand Est,Haut-Rhin,Mulhouse,musée du sapeur-pompier,12-14 Rue de Luppach,VIEUX-FERRETTE,68480,06 11 68 75 13,www.musee-sapeur-pompier.fr/,47.504301,7.304287,6834701
M0044,Grand Est,Haut-Rhin,Rixheim,musée du papier peint,"28, rue Zuber",La commanderie,68170,03 89 64 24 56,www.museepapierpeint.org/fr/,47.744135,7.397424,6827801
M0024,Grand Est,Haut-Rhin,Altkirch,musée sundgauvien,"1, rue de l'Hôtel de Ville",,68130,03 89 40 01 94,altkirch-alsace.fr/musee-sundgauvien/,47.623329,7.237204,6800401
M0032,Grand Est,Haut-Rhin,Kientzheim,musée du vignoble et des vins d'Alsace,9 rue de l'Ours,Château de la confrérie Saint-Etienne,68770,03 89 78 21 36,www.musee-du-vignoble-alsace.fr/,48.126069,7.280128,6816401
M0047,Grand Est,Haut-Rhin,Thann,"musée de la société d'histoire ""les amis de Thann""","24, rue Saint-Thiébaut",,68800,03 89 37 14 54,www.les-amis-de-thann.com/,47.812283,7.101737,6833401
M7047,Grand Est,Haut-Rhin,Mulhouse,musée minéralogique de la société industrielle de Mulhouse,"3, avenue Alfred-Werner",Ecole de Chimie,68100,03 89 33 68 88,www.enscmu.uha.fr/index.php/lenscmu/histoire-et-patrimoine/,47.73132,7.310303,6822409
M0309,Grand Est,Marne,Epernay,musée municipal,"13, avenue de Champagne",Château Perrier,51200,03 26 55 03 56,archeochampagne.epernay.fr/,49.042901,3.961379,5123001
M0311,Grand Est,Marne,Reims,musée des beaux-arts de Saint-Denis,"8, rue Chanzy",Ancienne abbaye de Saint-Denis,51100,03 26 35 36 00,musees-reims.fr/fr/musees/musee-des-beaux-arts/,49.253442,4.030921,5145401
M0314,Grand Est,Marne,Reims,musée du vieux Reims,36 Place du Forum,Hôtel Le Vergeur,51100,03 26 47 20 75,musees-reims.fr/fr/musees/musee-le-vergeur/,49.257013,4.034043,5145405
M1178,Grand Est,Marne,Châlons-en-Champagne,musée du cloître de Notre-Dame-en-Vaux,,,51000,,www.chalonsenchampagne.fr/culture-et-tourisme/a-votre-service/musees-municipaux,48.956391,4.364203,5110804
M0308,Grand Est,Marne,Châlons-en-Champagne,musée Garinet,"13, rue Pasteur",,51000,03 26 69 38 53,www.chalonsenchampagne.fr/culture-et-tourisme/a-votre-service/musees-municipaux,48.955859,4.366501,5110803
M0310,Grand Est,Marne,Pourcy,écomusée de la montagne de Reims,Rue du pré Michaux,Parc Naturel Régional Montagne de Reims,51160,03 26 59 44 44,www.parc-montagnedereims.fr/fr,49.112985,4.029412,5144501
M0312,Grand Est,Marne,Reims,musée Saint-Rémi,"53, rue Simon",Ancienne abbaye,51100,03 26 35 36 90,musees-reims.fr/fr/musees/musee-saint-remi/,49.243111,4.040351,5145404
M0307,Grand Est,Marne,Châlons-en-Champagne,musée municipal,,place Godart,51000,03 26 69 38 53,www.chalonsenchampagne.fr/culture/musees,48.956391,4.364203,5110801
M0315,Grand Est,Marne,Sainte-Menehould,musée de l'Argonne Viard-Morel,Place Leclerc,,51800,03 26 60 62 97,www.mmc-stemenehould.com/musee-d-art-et-d-histoire/,49.092086,4.897997,5150702
M0313,Grand Est,Marne,Reims,musée de l'ancien collège des jésuites,"1, place Museux",,51100,03 26 85 51 50,,49.246527,4.040071,5145407
M1080,Grand Est,Meurthe-et-Moselle,Pont-à-Mousson,"musée ""Au fil du papier""",13 rue Magot-de-Rogéville,Hôtel de la Monnaie,54700,03 83 87 80 14,ville-pont-a-mousson.fr/fr/rb/97333/presentation-12,48.901615,6.056259,5443101
M0510,Grand Est,Meurthe-et-Moselle,Longwy,musée municipal des émaux et faïence,,Porte de France,54400,03 82 23 85 19,museedesemaux.wordpress.com/,49.519776,5.760104,5432301
M0512,Grand Est,Meurthe-et-Moselle,Nancy,musée des beaux-arts,"3, place Stanislas",,54000,03 83 85 30 72,musee-des-beaux-arts.nancy.fr/accueil-145.html,48.693507,6.182435,5439506
M0513,Grand Est,Meurthe-et-Moselle,Nancy,musée de l'Ecole de Nancy,36-38 rue du Sergent Blandan,,54000,03 83 85 30 01,www.ecole-de-nancy.com/web/,48.680494,6.166351,5439501
M7048,Grand Est,Meurthe-et-Moselle,Nancy,muséum-aquarium de Nancy,34 rue Sainte-Catherine,,54000,03 83 32 99 97,www.museumaquariumdenancy.eu/accueil/,48.695072,6.188467,5439502
M0507,Grand Est,Meurthe-et-Moselle,Deneuvre,musée Les sources d'Hercule,1 place Jean Marie Keyser,,54120,03 83 75 22 82,www.museehercule.com/,48.446385,6.734719,5415401
M0508,Grand Est,Meurthe-et-Moselle,Laneuville-devant-Nancy,château de Montaigu,167 rue Lucien Galtier,,54410,03 83 15 27 70,www.chateaudemontaigu.eu,48.665792,6.215554,5430001
M0509,Grand Est,Meurthe-et-Moselle,Jarville-la-Malgrange,musée de l'histoire du fer,"1, avenue du Général de Gaulle",,54140,03 83 15 27 70,www.museehistoiredufer.fr/accueil/,48.666588,6.208769,5427401
M0511,Grand Est,Meurthe-et-Moselle,Lunéville,musée du château,place de la 2ème D.C.,Château de Lunéville,54300,03 83 76 04 75,www.chateauluneville.meurthe-et-moselle.fr/,48.589446,6.505708,5432901
M0514,Grand Est,Meurthe-et-Moselle,Nancy,musée historique lorrain,64 Grande Rue,Palais ducal - église des Cordeliers,54000,03 83 85 30 01,www.musee-lorrain.nancy.fr/,48.697316,6.179154,5439504
M0515,Grand Est,Meurthe-et-Moselle,Toul,musée d'art et d'histoire,25 rue Gouvion Saint-Cyr,,54200,03 83 64 13 38,www.toul.fr/?actuellement-au-musee,48.678544,5.89134,5452801
M0522,Grand Est,Meuse,Stenay,musée de la bière et du pays de Stenay,17 rue du Moulin,,55700,03 29 80 68 78,museedelabiere.com/,49.48769,5.186786,5550202
M0524,Grand Est,Meuse,Vaucouleurs,musée Jeanne d'Arc,rue Jeanne d'Arc,Hôtel de ville,55140,03 29 89 51 82,musees-meuse.fr/musee-jeanne-darc-vaucouleurs/,48.602652,5.666,5553301
M0521,Grand Est,Meuse,Sampigny,musée départemental Raymond Poincaré,14 rue du château,Le Clos,55300,03 29 90 70 50,musees-meuse.fr/musee-departemental-raymond-poincare-sampigny/,48.827583,5.50824,5546701
M0523,Grand Est,Meuse,Varennes-en-Argonne,musée d'Argonne,9 rue Louis XVI,,55270,03 29 80 71 14,musees-meuse.fr/musee-dargonne-varennes-en-argonne/,49.226057,5.033072,5552701
M0517,Grand Est,Meuse,Bar-le-Duc,musée barrois,Esplanade du Château,,55000,03 29 76 14 67,musees-meuse.fr/musee-barrois/,48.771797,5.156074,5502901
M0518,Grand Est,Meuse,Commercy,musée de la céramique et de l'ivoire,7 avenue Carcano,,55200,03 29 92 04 77,musees-meuse.fr/musee-de-la-ceramique-et-de-livoire-commercy/,48.76331,5.58962,5512201
M0519,Grand Est,Meuse,Montmédy,musée Jules Bastien-Lepage - musée de la fortification,La Citadelle,,55600,03 29 80 15 90,musees-meuse.fr/musee-jules-bastien-lepage-montmedy/#1486118691097-c04ba0bd-02c9,49.523594,5.348511,5535101
M0525,Grand Est,Meuse,Verdun,musée de la Princerie,16 rue de La Belle Vierge,,55100,03 29 86 10 62,www.musee-princerie-verdun.fr/,49.161059,5.382439,5554501
M0520,Grand Est,Meuse,Saint-Mihiel,musée d'art sacré de la Meuse,1 Rue du Palais de Justice,,55300,03 29 89 06 47,musees-meuse.fr/musee-dart-sacre-saint-mihiel/,48.88855,5.541165,5546301
M0528,Grand Est,Moselle,Meisenthal,maison du verre et du cristal,Place Robert Schuman,,57960,03 87 96 91 51,ciav-meisenthal.fr/rubrique/apropos,48.964935,7.352438,5745601
M0530,Grand Est,Moselle,Neufchef (Hayange),musée des mines de fer de Lorraine,2 rue du musée,Mine de Neufchef-Hayange,57700,03 82 85 76 55,www.musee-minesdefer-lorraine.com,49.325904,6.027572,5730601
M0531,Grand Est,Moselle,Phalsbourg,musée militaire et Erckmann-Chatrian,place d'Armes,Hôtel de ville,57370,03 87 24 41 20,www.phalsbourg.fr/La_culture__les_loisirs/Le_musee,48.766548,7.259055,5754001
M0532,Grand Est,Moselle,Sarrebourg,musée du pays de Sarrebourg,Rue de la Paix,,57400,03 87 08 08 68,www.sarrebourg.fr/Musee,48.734975,7.055253,5763001
M1089,Grand Est,Moselle,Petite-Rosselle,musée de la mine - carreau Wendel,"Parc Explor Wendel, Musée Les Mineurs Wendel",,57540,03 87 87 08 54,parc-explor.com/,49.20684,6.848979,5753701
M0529,Grand Est,Moselle,Metz,musées de la Cour d'or,2 rue du Haut-Poirier,,57000,03 87 20 13 20,musee.metzmetropole.fr/,49.121051,6.177978,5746302
M0534,Grand Est,Moselle,Thionville,musée de la Tour-aux-Puces,Cour du Château,Thionville cedex,57125,03 82 82 25 52,www.tourauxpuces.com/fr,49.3581709673389,6.1692670032455,5767201
M1085,Grand Est,Moselle,Vic-sur-Seille,musée départemental Georges de la Tour,Place Jeanne d'Arc,,57630,03 87 78 05 30,www.mosellepassion.fr/index.php/les-sites-moselle-passion/musee-georges-de-la-tour,48.781787,6.531429,5771201
M0526,Grand Est,Moselle,Gravelotte,musée de la guerre de 1870,11 rue de Metz,,57130,03 87 33 69 40,www.mosellepassion.fr/index.php/les-sites-moselle-passion/musee-de-la-guerre-de-1870,49.113679,6.029871,5725601
M0527,Grand Est,Moselle,Marsal,musée du sel,Porte de France,,57630,03 87 35 01 50,www.mosellepassion.fr/index.php/les-sites-moselle-passion/musee-du-sel,48.788503,6.606549,5744801
M0533,Grand Est,Moselle,Sarreguemines,musée de la faïence et des techniques faïencières,15-17 rue Poincaré,,57200,03 87 98 93 50,www.sarreguemines-museum.eu/,49.109069,7.070473,5763102
M0536,Grand Est,Vosges,Epinal,musée départemental d'art ancien et contemporain,1 place de Lagarde,,88000,03 29 82 20 33,mudaac.vosges.fr/,48.17326,6.446595,8816001
M0541,Grand Est,Vosges,Remiremont,musée Charles Friry,12 rue du Général Humbert,,88200,03 29 62 59 13,www.remiremont.fr/culture/musees-de-remiremont/musee-charles-friry/,48.015174,6.590031,8838302
M0542,Grand Est,Vosges,Saint-Dié-des-Vosges,musée Pierre Noël - musée de la vie dans les Hautes-Vosges,Place Georges Trimouille,,88100,03 29 51 60 35,www.ca-saintdie.fr/decouvrir/musee-pierre-noel/actualites,48.295658,6.947961,8841301
M0538,Grand Est,Vosges,Mirecourt,musée de la lutherie,Cours Stanislas,,88503,03 29 37 81 59,musee-lutherie-mirecourt.fr/,48.30159282877,6.13544043996407,8830401
M0540,Grand Est,Vosges,Remiremont,musée Charles de Bruyères,70 rue Charles de Gaulle,,88200,03 29 62 59 14,www.remiremont.fr/culture/musees-de-remiremont/musee-charles-de-bruyeres/,48.016142,6.593289,8838301
M0537,Grand Est,Vosges,Epinal,musée de l'image,42 quai Dogneville,,88000,03 29 81 48 30,museedelimage.fr/,48.183628,6.445992,8816002
M0539,Grand Est,Vosges,Plombières-les-Bains,musée Louis Français,30 avenue Louis Français,,88370,03 29 66 00 24,www.plombieres-les-bains.fr/fr/musee-du-paysage-louis-francais.html,47.964095,6.458494,8835101
M0784,Hauts-de-France,Aisne,Château-Thierry,musée Jean de la Fontaine,12 rue Jean de La Fontaine,,02400,03 23 69 05 60,www.museejeandelafontaine.fr/,49.046927,3.400289,0216801
M0788,Hauts-de-France,Aisne,Hirson,musée - centre de documentation Alfred Desmasures,,impasse du château,02500,03 23 98 77 42,fourmies.canalblog.com/archives/2007/07/15/5642323.html,49.921047,4.083876,0238101
M0790,Hauts-de-France,Aisne,Laon,musée archéologique municipale,32 rue Georges-Ermant,,02000,03 23 22 87 00,laon.fr/VILLE_LAON_21_WEB/FR/Accueil.awp?page=57&m=6.110.115,49.563206,3.626781,0240802
M0792,Hauts-de-France,Aisne,Saint-Michel-en-Thiérache,musée de la vie rurale et forestière,34 boulevard Savart,,02830,03 23 58 87 20,www.abbaye-saintmichel.com/musee1.htm,49.922563,4.134763,0268401
M0793,Hauts-de-France,Aisne,Saint-Quentin,musée des beaux-arts Antoine Lécuyer,28 rue Antoine Lécuyer,,02100,03 23 06 93 98,www.saint-quentin.fr/109-musee-lecuyer.htm,49.849891,3.285398,0269102
M7060,Hauts-de-France,Aisne,Saint-Quentin,musée entomologique,14 rue de la Sellerie,,02100,03 23 06 93 93,www.saint-quentin.fr/108-musee-papillons.htm,49.84595,3.288944,0269101
M0787,Hauts-de-France,Aisne,Guise,Familistère de Guise,265 Familistère Aile droite,Familistère de Guise,02120,03 23 61 35 36,www.familistere.com/fr/visiter/que-voir-que-faire-au-familistere/le-musee-de-site,49.903647,3.626529,0236102
M0795,Hauts-de-France,Aisne,Vervins,musée de la Thiérache,Place de l'hôtel de ville,Société Archéologique et Historique de Vervins et de La Thiérache,02140,03 23 98 94 51,www.tourisme-thierache.fr/fiche/detail/304/Mus%C3%A9e-de-la-Thi%C3%A9rache,49.834696,3.907684,0278901
M0794,Hauts-de-France,Aisne,Soissons,musée municipal,2 rue de la Congrégation,Ancienne Eglise Saint-Léger,02200,03 23 93 30 50,www.ville-soissons.fr/loisirs-culture-sport/les-musees-de-soissons-514.html,49.384539,3.327233,0272201
M0796,Hauts-de-France,Aisne,Villers-Cotterets,musée Alexandre Dumas,24 rue Demoustier,,02600,03 23 96 23 30,webmuseo.com/ws/musee-dumas/app/report/index.html,49.253009,3.089691,0281001
M5008,Hauts-de-France,Aisne,Blérancourt,musée franco-américain du château de Blérancourt,,Château de Blérancourt,02300,03 23 39 60 16,museefrancoamericain.fr/,49.516035,3.150459,0209301
M0785,Hauts-de-France,Aisne,Chauny,musée bibliothèque,28 rue de la Paix,Hôtel de ville,02300,03 23 38 32 59,www.ville-chauny.fr/Ville_chauny_web/FR/Accueil.awp?page=57&m=6.110.115,49.615394,3.216814,0217301
M0786,Hauts-de-France,Aisne,Tergnier,musée de la résistance et de la déportation,Place Carnegie,,02700,03 23 57 93 77,www.mrdp-picardie.com,49.65875,3.315011,0273801
M0789,Hauts-de-France,Aisne,La Fère,musée Jeanne d'Aboville,5 rue du Général de Gaulle,,02800,03 23 56 71 91,mjaboville-lafere.fr/,49.661954,3.367748,0230401
M0791,Hauts-de-France,Aisne,Origny-en-Thiérache,musée Monseigneur Pigneau de Behaine,Rue du Musée,,02550,03 23 91 31 10,,49.896025,4.022381,0257401
M0611,Hauts-de-France,Nord,Bailleul,musée Benoît de Puydt,24 rue du musée De Puydt,,59270,03 28 49 12 70,www.ville-bailleul.fr/index.php/Mus%C3%A9e?idpage=121&idmetacontenu=169,50.740715,2.734399,5904301
M0623,Hauts-de-France,Nord,Escaudain,musée municipal,Rue Paul-Bert,,59124,03 27 32 12 40,escaudain.fr/index.php/culture-et-loisirs/associations-culturelles/85-musee,50.327784,3.343632,5920501
M0632,Hauts-de-France,Nord,Marchiennes,musée municipal d'histoire locale,Rue Corbineau,Ancienne prisons du pavillon d'entrée de l'abbaye de Marchiennes,59870,03 27 99 21 95,marchiennes.fr/fr/rb/565307/musee-dhistoire-locale,50.40744,3.281222,5937501
M0637,Hauts-de-France,Nord,Tourcoing,Muba Eugène Leroy Tourcoing / musée des beaux-arts Eugène Leroy de Tourcoing,2 rue Paul Doumer,,59200,03 20 28 91 60,www.muba-tourcoing.fr/,50.724594,3.162878,5959901
M0639,Hauts-de-France,Nord,Villeneuve-d'Ascq,"LaM - Lille Métropole Musée d'art moderne, d'art contemporain et d'art brut",1 allée du Musée,,59650,03 20 19 68 68,www.musee-lam.fr/fr,50.637497,3.148587,5900901
M0615,Hauts-de-France,Nord,Cambrai,musée municipal,15 rue de L'Epée,,59400,33 (0) 3 27 82 27 90,www.villedecambrai.com/culture/le-musee-des-beaux-arts/,50.17347,3.229635,5912201
M0616,Hauts-de-France,Nord,Cambrai,musée diocésain d'art sacré,S'adresser à l'archevêché - Service diocésain de la conservation du Patrimoine,"11, rue du Grand Séminaire, Cambrai Cedex",59403,03 27 81 34 96,archives.cathocambrai.com/musee-art-sacre.html,50.1731798809396,3.2313971695083,5912202
M0619,Hauts-de-France,Nord,Douai,musée de la Chartreuse,130 rue des Chartreux,,59500,03 27 71 38 80,www.museedelachartreuse.fr/,50.374404,3.07548,5917801
M0622,Hauts-de-France,Nord,Dunkerque,musée portuaire,9 quai de la Citadelle,,59140,03 28 63 33 39,www.museeportuaire.com/,51.037914,2.372174,5918303
M0633,Hauts-de-France,Nord,Maubeuge,musée Henri Boez,Hôtel de Ville,,59607,03 27 64 97 99,,50.2804119690214,3.96768305733737,5939201
M0636,Hauts-de-France,Nord,Sars-Poteries,MusVerre,1 rue du Général de Gaulle,,59216,,musverre.lenord.fr/fr/Accueil.aspx,50.164428,4.023602,5955501
M1197,Hauts-de-France,Nord,Caudry,musée des dentelles et broderies,,,59540,,musee-dentelle.caudry.fr/fr/le-musee-et-ses-collections/presentation-du-musee.html,50.124558,3.410691,5913901
M7001,Hauts-de-France,Nord,Lille,musée d'histoire naturelle et de géologie,19 rue de Bruxelles,,59000,03 28 55 30 80,mhn.lille.fr/,50.626639,3.066546,5935003
M0620,Hauts-de-France,Nord,Dunkerque,musée d'art contemporain,Jardin des sculptures,,59240,03 28 29 56 00,www.musees-dunkerque.eu/,51.0452716042499,2.38324378487689,5918304
M0621,Hauts-de-France,Nord,Dunkerque,musée des beaux-arts,,,59140,03 28 29 56 00,www.musees-dunkerque.eu/,51.037327,2.375518,5918301
M0629,Hauts-de-France,Nord,Lille,musée des beaux-arts,Place de la République,,59000,03 20 06 78 00,pba.lille.fr/,50.621132,3.068387,5935002
M0635,Hauts-de-France,Nord,Saint-Amand-les-Eaux,musée de la Tour abbatiale,Grand-Place,Tour abbatiale,59230,03 27 22 24 55,www.saint-amand-les-eaux.fr/musee-de-la-tour-abbatiale,50.448711,3.427672,5952601
M0610,Hauts-de-France,Nord,Avesnes-sur-Helpe,musée d'histoire et d'archéologie,BP 90,Institut Villien,59440,03 27 61 10 15,,50.12356,3.924751,5903601
M0612,Hauts-de-France,Nord,Bavay,Forum antique de Bavay,Allée Chanoine Biévelet,,59570,03 59 73 15 50,forumantique.fr/,50.284781,3.774369,5905301
M0613,Hauts-de-France,Nord,Bergues,musée du Mont-de-Piété,1 rue du Mont-de-Piété,,59380,03 28 68 13 30,bergues-musee.fr/,50.969087,2.430391,5906701
M0614,Hauts-de-France,Nord,Bouchain,musée de l'Ostrevant,rue de l'Ostrevant,,59111,03 27 35 73 97,bouchain.fr/culture-tourisme/#more-5954,50.284847,3.317909,5909201
M0617,Hauts-de-France,Nord,Cassel,musée de Flandre,26 Grand-Place,Hôtel de la Noble-Cour,59670,03 59 73 45 59,museedeflandre.fr/,50.799755,2.48621,5913501
M0618,Hauts-de-France,Nord,Denain,musée d'archéologie et d'histoire locale,Place Wilson,,59220,03 27 24 52 71,www.ville-denain.fr/Decouvrir-Denain/Histoire-et-patrimoine/Musee-d-archeologie-et-d-histoire-locale,50.327614,3.400973,5917201
M0624,Hauts-de-France,Nord,Fourmies-Trélon,écomusée de la région,place Maria Blondeau,,59612,03 27 60 66 11,www.ecomusee-avesnois.fr/,50.0177250745012,4.04356588193015,5924901
M0626,Hauts-de-France,Nord,Hazebrouck,musée municipal,place Georges Degroste,Ancien Couvent des Augustins,59190,03 28 21 64 71,www.ville-hazebrouck.fr/decouvrir-hazebrouck/patrimoine/le-musee-des-augustins/,50.721177,2.535346,5929501
M0627,Hauts-de-France,Nord,Le Cateau-Cambrésis,musée Henri Matisse,Palais Fénelon Place du Commandant Richez BP 70056,,59360,+33 (0)3 59 73 38 00,museematisse.fr/,50.105684,3.541175,5913601
M0631,Hauts-de-France,Nord,Lille,musée de l'hospice Comtesse,32 rue de la Monnaie,,59800,03 28 36 84 00,www.lille.fr/Le-Musee-de-l-Hospice-Comtesse,50.641053,3.06294,5935004
M0638,Hauts-de-France,Nord,Valenciennes,musée des beaux-arts,Boulevard Watteau,,59300,03 27 22 57 20,valenciennesmusee.valenciennes.fr/,50.35582,3.53105,5960601
M0609,Hauts-de-France,Nord,Anzin,musée Théophile Jouglet,215 avenue Anatole-France,,59410,03 27 28 21 00,,50.372162,3.502134,5901401
M0625,Hauts-de-France,Nord,Gravelines,musée du dessin et de l'estampe originale,Site de l'Arsenal - BP 43,Arsenal,59820,03 28 24 99 70,www.ville-gravelines.fr/expotemp/02-%20PAGE%20WEB/01Musee/Musee.html,50.992478,2.159542,5927301
M0628,Hauts-de-France,Nord,Lewarde,"centre historique minier, musée de la mine, centre d'archives, centre de culture scientifique de l'énergie",Rue d'Erchin,Fosse Delloye,59287,03 27 95 82 82,www.chm-lewarde.com/fr/,50.336033,3.168419,5934501
M0634,Hauts-de-France,Nord,Roubaix,La Piscine - musée d'art et d'industrie André Diligent de Roubaix,23 rue de l'Espérance,,59100,03 20 69 23 64,www.roubaix-lapiscine.com/,50.693026,3.16791,5951201
M0798,Hauts-de-France,Oise,Beauvais,MUDO - musée de l'Oise,1 rue du musée,,60000,03 44 10 40 50,mudo.oise.fr/,49.432788,2.080444,6005701
M0807,Hauts-de-France,Oise,Noyon,musée du Noyonnais,7 rue de l'Evêché,Ancien palais épiscopal,60400,03 44 03 43 41,www.ville-noyon.fr/-Les-musees-de-Noyon,49.581852,2.999742,6047101
M0808,Hauts-de-France,Oise,Noyon,musée Calvin,6 place Aristide-Briand,,60400,03 44 44 03 59,www.ville-noyon.fr/-Les-musees-de-Noyon,49.581666,2.998444,6047103
M5009,Hauts-de-France,Oise,Compiègne,musée national du château de Compiègne,Palais National,Château de Compiègne,60200,03 44 38 47 02,chateaudecompiegne.fr/,49.4194386445664,2.83149093456409,6015901
M5052,Hauts-de-France,Oise,Chantilly,musée Condé,BP 70243,Château de Chantilly,60631,03 44 62 62 62,musee-conde.fr/fr/,49.19397,2.48522,
M0800,Hauts-de-France,Oise,Vendeuil-Caply,musée archéologique de l'Oise,Les Marmousets,,60120,03 64 58 80 00,m-a-o.org/fr/,49.627157,2.316919,6066401
M0809,Hauts-de-France,Oise,Senlis,musée d'art et d'archéologie,Place Notre-Dame,,60300,03 44 24 86 72,musees.ville-senlis.fr/,49.20653,2.585615,6061202
M1117,Hauts-de-France,Oise,Méru,musée de la nacre et de la tabletterie,51 rue Roger Salengro,,60110,03 44 22 61 74,www.musee-nacre.com/,49.238327,2.139609,6039501
M0801,Hauts-de-France,Oise,Chaumont-en-Vexin,musée Pillon,45 rue de l'Hôtel de Ville,Salle du Patrimoine,60240,03 44 49 00 46,hwww.officedelaculture-chaumont-en-vexin.fr/musee-pillon.html,49.262578,1.882069,6014301
M0803,Hauts-de-France,Oise,Compiègne,musée Antoine Vivenel,2 rue d'Austerlitz,Hôtel de Songeons,60200,03 44 20 26 04,www.musees-compiegne.fr/,49.417414,2.821526,6015904
